{"0": {"banderaId": 2, "lat": "-24.726100", "lng": "-65.403370", "sucursalNombre": "Salta Ciudad Judicial", "id": "11-2-1075", "sucursalTipo": "Hipermercado", "provincia": "AR-A", "direccion": "Avenida Fuerza Aerea Esq. Aguas Blancas None", "banderaDescripcion": "Changomas", "localidad": "BARRIO CASTA\u00d1ARES", "comercioRazonSocial": "Wal Mart Argentina S.R.L.", "comercioId": 11, "sucursalId": "1075"}, "1": {"banderaId": 1, "lat": "-24.830882", "lng": "-65.428647", "sucursalNombre": "Hipermercado Salta", "id": "16-1-1302", "sucursalTipo": "Hipermercado", "provincia": "AR-A", "direccion": "Avda. Monse\u00f1or Tavella Y Avda. Ex - Combatientes De Malvina None", "banderaDescripcion": "Hipermercado Libertad", "localidad": "Capital", "comercioRazonSocial": "Libertad S.A", "comercioId": 16, "sucursalId": "1302"}, "2": {"banderaId": 1, "lat": "-24.7871267", "lng": "-65.4177599", "sucursalNombre": "8012 - Joaquin V Gonzalez", "id": "15-1-8012", "sucursalTipo": "Autoservicio", "provincia": "AR-A", "direccion": "Av Gral Guemes 170", "banderaDescripcion": "Supermercados DIA", "localidad": "Joaquin V Gonzalez", "comercioRazonSocial": "DIA Argentina S.A", "comercioId": 15, "sucursalId": "8012"}, "3": {"banderaId": 1, "lat": "-25.4987985", "lng": "-64.9705319", "sucursalNombre": "8014 - Metan", "id": "15-1-8014", "sucursalTipo": "Supermercado", "provincia": "AR-A", "direccion": "Jose Ignacio Sierra 126", "banderaDescripcion": "Supermercados DIA", "localidad": "Metan", "comercioRazonSocial": "DIA Argentina S.A", "comercioId": 15, "sucursalId": "8014"}, "4": {"banderaId": 1, "lat": "-23.1308", "lng": "-64.3261", "sucursalNombre": "SM 140 Or\u00e1n - Salta.", "id": "9-1-140", "sucursalTipo": "Supermercado", "provincia": "AR-A", "direccion": "20 De Febrero Esq. Guemes 0", "banderaDescripcion": "Vea", "localidad": "ORAN", "comercioRazonSocial": "Jumbo Retail Argentina S.A.", "comercioId": 9, "sucursalId": "140"}, "5": {"banderaId": 1, "lat": "-24.789072", "lng": "-65.413699", "sucursalNombre": "Salta", "id": "10-1-112", "sucursalTipo": "Hipermercado", "provincia": "AR-A", "direccion": "20 De Febrero 37", "banderaDescripcion": "Hipermercado Carrefour", "localidad": "Salta", "comercioRazonSocial": "INC S.A.", "comercioId": 10, "sucursalId": "112"}, "6": {"banderaId": 1, "lat": "-24.7814935", "lng": "-65.4143692", "sucursalNombre": "8005 - Salta", "id": "15-1-8005", "sucursalTipo": "Autoservicio", "provincia": "AR-A", "direccion": "25 De Mayo 652", "banderaDescripcion": "Supermercados DIA", "localidad": "Salta", "comercioRazonSocial": "DIA Argentina S.A", "comercioId": 15, "sucursalId": "8005"}, "7": {"banderaId": 1, "lat": "-24.812077", "lng": "-65.383161", "sucursalNombre": "8002 - Salta", "id": "15-1-8002", "sucursalTipo": "Autoservicio", "provincia": "AR-A", "direccion": "Av Americas 955", "banderaDescripcion": "Supermercados DIA", "localidad": "Salta", "comercioRazonSocial": "DIA Argentina S.A", "comercioId": 15, "sucursalId": "8002"}, "8": {"banderaId": 1, "lat": "-24.781285", "lng": "-65.401667", "sucursalNombre": "Salta III", "id": "10-1-171", "sucursalTipo": "Hipermercado", "provincia": "AR-A", "direccion": "Av. Bicentenario Batalla De Salta 702", "banderaDescripcion": "Hipermercado Carrefour", "localidad": "Salta", "comercioRazonSocial": "INC S.A.", "comercioId": 10, "sucursalId": "171"}, "9": {"banderaId": 1, "lat": "-24.779652", "lng": "-65.427437", "sucursalNombre": "Salta VII", "id": "10-1-175", "sucursalTipo": "Hipermercado", "provincia": "AR-A", "direccion": "Av. Entre R\u00edos 1816", "banderaDescripcion": "Hipermercado Carrefour", "localidad": "Salta", "comercioRazonSocial": "INC S.A.", "comercioId": 10, "sucursalId": "175"}, "10": {"banderaId": 1, "lat": "-24.7922771", "lng": "-65.4291746", "sucursalNombre": "8007 - Salta", "id": "15-1-8007", "sucursalTipo": "Autoservicio", "provincia": "AR-A", "direccion": "Av Gral San Martin 1891", "banderaDescripcion": "Supermercados DIA", "localidad": "Salta", "comercioRazonSocial": "DIA Argentina S.A", "comercioId": 15, "sucursalId": "8007"}, "11": {"banderaId": 1, "lat": "-24.808249", "lng": "-65.399047", "sucursalNombre": "806 - Salta", "id": "15-1-806", "sucursalTipo": "Autoservicio", "provincia": "AR-A", "direccion": "Av Independencia 1325", "banderaDescripcion": "Supermercados DIA", "localidad": "Salta", "comercioRazonSocial": "DIA Argentina S.A", "comercioId": 15, "sucursalId": "806"}, "12": {"banderaId": 1, "lat": "-24.811541", "lng": "-65.426427", "sucursalNombre": "1802 - Salta", "id": "15-1-1802", "sucursalTipo": "Supermercado", "provincia": "AR-A", "direccion": "Av  Jose Contreras 0", "banderaDescripcion": "Supermercados DIA", "localidad": "Salta", "comercioRazonSocial": "DIA Argentina S.A", "comercioId": 15, "sucursalId": "1802"}, "13": {"banderaId": 1, "lat": "-24.7880714", "lng": "-65.4219001", "sucursalNombre": "8013 - Salta", "id": "15-1-8013", "sucursalTipo": "Autoservicio", "provincia": "AR-A", "direccion": "Brown 70", "banderaDescripcion": "Supermercados DIA", "localidad": "Salta", "comercioRazonSocial": "DIA Argentina S.A", "comercioId": 15, "sucursalId": "8013"}, "14": {"banderaId": 1, "lat": "-24.7996878", "lng": "-65.4090968", "sucursalNombre": "8001 - Salta", "id": "15-1-8001", "sucursalTipo": "Autoservicio", "provincia": "AR-A", "direccion": "Cordoba 761", "banderaDescripcion": "Supermercados DIA", "localidad": "Salta", "comercioRazonSocial": "DIA Argentina S.A", "comercioId": 15, "sucursalId": "8001"}, "15": {"banderaId": 1, "lat": "-24.719693", "lng": "-65.406139", "sucursalNombre": "1801 - Salta", "id": "15-1-1801", "sucursalTipo": "Supermercado", "provincia": "AR-A", "direccion": "Ejercito Argentino 0", "banderaDescripcion": "Supermercados DIA", "localidad": "Salta", "comercioRazonSocial": "DIA Argentina S.A", "comercioId": 15, "sucursalId": "1801"}, "16": {"banderaId": 1, "lat": "-24.7869634", "lng": "-65.4323303", "sucursalNombre": "8006 - Salta", "id": "15-1-8006", "sucursalTipo": "Autoservicio", "provincia": "AR-A", "direccion": "Espa\u00e3\u00b1A 2195", "banderaDescripcion": "Supermercados DIA", "localidad": "Salta", "comercioRazonSocial": "DIA Argentina S.A", "comercioId": 15, "sucursalId": "8006"}, "17": {"banderaId": 1, "lat": "-24.769449", "lng": "-65.443309", "sucursalNombre": "8003 - Salta", "id": "15-1-8003", "sucursalTipo": "Autoservicio", "provincia": "AR-A", "direccion": "Gral Savio 0", "banderaDescripcion": "Supermercados DIA", "localidad": "Salta", "comercioRazonSocial": "DIA Argentina S.A", "comercioId": 15, "sucursalId": "8003"}, "18": {"banderaId": 1, "lat": "-24.964549", "lng": "-65.488976", "sucursalNombre": "8015 - Salta", "id": "15-1-8015", "sucursalTipo": "Autoservicio", "provincia": "AR-A", "direccion": "Hipolito Irigoyen 440", "banderaDescripcion": "Supermercados DIA", "localidad": "Salta", "comercioRazonSocial": "DIA Argentina S.A", "comercioId": 15, "sucursalId": "8015"}, "19": {"banderaId": 1, "lat": "-24.795180", "lng": "-65.414204", "sucursalNombre": "Comodin 18", "id": "6-1-18", "sucursalTipo": "Supermercado", "provincia": "AR-A", "direccion": "Ituzaingo 440", "banderaDescripcion": "Supermercados Comodin", "localidad": "Salta", "comercioRazonSocial": "Alberdi S.A.", "comercioId": 6, "sucursalId": "18"}, "20": {"banderaId": 1, "lat": "-24.793708", "lng": "-65.440698", "sucursalNombre": "8010 - Salta", "id": "15-1-8010", "sucursalTipo": "Autoservicio", "provincia": "AR-A", "direccion": "J De Dios Usandivaras 0", "banderaDescripcion": "Supermercados DIA", "localidad": "Salta", "comercioRazonSocial": "DIA Argentina S.A", "comercioId": 15, "sucursalId": "8010"}, "21": {"banderaId": 1, "lat": "-24.8857", "lng": "-65.469513", "sucursalNombre": "8016 - Salta", "id": "15-1-8016", "sucursalTipo": "Autoservicio", "provincia": "AR-A", "direccion": "Juan Manuel De Rosas 0", "banderaDescripcion": "Supermercados DIA", "localidad": "Salta", "comercioRazonSocial": "DIA Argentina S.A", "comercioId": 15, "sucursalId": "8016"}, "22": {"banderaId": 1, "lat": "-24.797858", "lng": "-65.417406", "sucursalNombre": "804 - Salta", "id": "15-1-804", "sucursalTipo": "Autoservicio", "provincia": "AR-A", "direccion": "Jujuy 685", "banderaDescripcion": "Supermercados DIA", "localidad": "Salta", "comercioRazonSocial": "DIA Argentina S.A", "comercioId": 15, "sucursalId": "804"}, "23": {"banderaId": 1, "lat": "-24.849116", "lng": "-65.43395", "sucursalNombre": "8011 - Salta", "id": "15-1-8011", "sucursalTipo": "Autoservicio", "provincia": "AR-A", "direccion": "Las Golondrinas 1512", "banderaDescripcion": "Supermercados DIA", "localidad": "Salta", "comercioRazonSocial": "DIA Argentina S.A", "comercioId": 15, "sucursalId": "8011"}, "24": {"banderaId": 1, "lat": "-24.7948557", "lng": "-65.4104126", "sucursalNombre": "802 - Salta", "id": "15-1-802", "sucursalTipo": "Autoservicio", "provincia": "AR-A", "direccion": "Mendoza 520", "banderaDescripcion": "Supermercados DIA", "localidad": "Salta", "comercioRazonSocial": "DIA Argentina S.A", "comercioId": 15, "sucursalId": "802"}, "25": {"banderaId": 1, "lat": "-24.8034671", "lng": "-65.4373408", "sucursalNombre": "8008 - Salta", "id": "15-1-8008", "sucursalTipo": "Autoservicio", "provincia": "AR-A", "direccion": "Miguel De Azcuenaga 2295", "banderaDescripcion": "Supermercados DIA", "localidad": "Salta", "comercioRazonSocial": "DIA Argentina S.A", "comercioId": 15, "sucursalId": "8008"}, "26": {"banderaId": 1, "lat": "-24.7779849", "lng": "-65.4099025", "sucursalNombre": "1800 - Salta", "id": "15-1-1800", "sucursalTipo": "Supermercado", "provincia": "AR-A", "direccion": "Mitre 960", "banderaDescripcion": "Supermercados DIA", "localidad": "Salta", "comercioRazonSocial": "DIA Argentina S.A", "comercioId": 15, "sucursalId": "1800"}, "27": {"banderaId": 1, "lat": "-24.7947076", "lng": "-65.4322727", "sucursalNombre": "803 - Salta", "id": "15-1-803", "sucursalTipo": "Autoservicio", "provincia": "AR-A", "direccion": "Olavarria 506", "banderaDescripcion": "Supermercados DIA", "localidad": "Salta", "comercioRazonSocial": "DIA Argentina S.A", "comercioId": 15, "sucursalId": "803"}, "28": {"banderaId": 1, "lat": "-24.7926754", "lng": "-65.4153853", "sucursalNombre": "800 - Salta", "id": "15-1-800", "sucursalTipo": "Autoservicio", "provincia": "AR-A", "direccion": "Pellegrini 257", "banderaDescripcion": "Supermercados DIA", "localidad": "Salta", "comercioRazonSocial": "DIA Argentina S.A", "comercioId": 15, "sucursalId": "800"}, "29": {"banderaId": 1, "lat": "-24.801740", "lng": "-65.416186", "sucursalNombre": "Comodin 9", "id": "6-1-9", "sucursalTipo": "Supermercado", "provincia": "AR-A", "direccion": "Pellegrini 953", "banderaDescripcion": "Supermercados Comodin", "localidad": "Salta", "comercioRazonSocial": "Alberdi S.A.", "comercioId": 6, "sucursalId": "9"}, "30": {"banderaId": 1, "lat": "-24.847714", "lng": "-65.450626", "sucursalNombre": "1803 - Salta", "id": "15-1-1803", "sucursalTipo": "Supermercado", "provincia": "AR-A", "direccion": "Radio Patagonia 0", "banderaDescripcion": "Supermercados DIA", "localidad": "Salta", "comercioRazonSocial": "DIA Argentina S.A", "comercioId": 15, "sucursalId": "1803"}, "31": {"banderaId": 1, "lat": "-24.9856165", "lng": "-65.5777397", "sucursalNombre": "8009 - Salta", "id": "15-1-8009", "sucursalTipo": "Autoservicio", "provincia": "AR-A", "direccion": "Sarmiento 0", "banderaDescripcion": "Supermercados DIA", "localidad": "Salta", "comercioRazonSocial": "DIA Argentina S.A", "comercioId": 15, "sucursalId": "8009"}, "32": {"banderaId": 1, "lat": "-24.792053", "lng": "-65.412395", "sucursalNombre": "801 - Salta", "id": "15-1-801", "sucursalTipo": "Autoservicio", "provincia": "AR-A", "direccion": "Urquiza 680", "banderaDescripcion": "Supermercados DIA", "localidad": "Salta", "comercioRazonSocial": "DIA Argentina S.A", "comercioId": 15, "sucursalId": "801"}, "33": {"banderaId": 1, "lat": "-24.7789448", "lng": "-65.4045791", "sucursalNombre": "8004 - Salta", "id": "15-1-8004", "sucursalTipo": "Autoservicio", "provincia": "AR-A", "direccion": "Vicente Lopez 901", "banderaDescripcion": "Supermercados DIA", "localidad": "Salta", "comercioRazonSocial": "DIA Argentina S.A", "comercioId": 15, "sucursalId": "8004"}, "34": {"banderaId": 3, "lat": "-24.7726", "lng": "-65.4129", "sucursalNombre": "Jumbo Salta", "id": "9-3-5251", "sucursalTipo": "Hipermercado", "provincia": "AR-A", "direccion": "20 De Febrero 1437", "banderaDescripcion": "Jumbo", "localidad": "SALTA", "comercioRazonSocial": "Jumbo Retail Argentina S.A.", "comercioId": 9, "sucursalId": "5251"}, "35": {"banderaId": 1, "lat": "-24.7298", "lng": "-65.4127", "sucursalNombre": "Ciudad Judicial", "id": "9-1-655", "sucursalTipo": "Supermercado", "provincia": "AR-A", "direccion": "Avenida Houssay Dr Bernardo, Esq. Colectora 0", "banderaDescripcion": "Vea", "localidad": "SALTA", "comercioRazonSocial": "Jumbo Retail Argentina S.A.", "comercioId": 9, "sucursalId": "655"}, "36": {"banderaId": 1, "lat": "-24.7581", "lng": "-65.3986", "sucursalNombre": "Tres Cerritos.", "id": "9-1-110", "sucursalTipo": "Supermercado", "provincia": "AR-A", "direccion": "Avenida Reyes Catolicos 1480", "banderaDescripcion": "Vea", "localidad": "SALTA", "comercioRazonSocial": "Jumbo Retail Argentina S.A.", "comercioId": 9, "sucursalId": "110"}, "37": {"banderaId": 1, "lat": "-24.7767", "lng": "-65.4148", "sucursalNombre": "Salta IV.", "id": "9-1-657", "sucursalTipo": "Supermercado", "provincia": "AR-A", "direccion": "Avenida Sarmiento Y O\u00b4Higgins 0", "banderaDescripcion": "Vea", "localidad": "SALTA", "comercioRazonSocial": "Jumbo Retail Argentina S.A.", "comercioId": 9, "sucursalId": "657"}, "38": {"banderaId": 1, "lat": "-24.8414", "lng": "-65.4331", "sucursalNombre": "Salta Sur", "id": "9-1-656", "sucursalTipo": "Supermercado", "provincia": "AR-A", "direccion": "Av. Ex Combatientes De Malvinas 3900", "banderaDescripcion": "Vea", "localidad": "SALTA", "comercioRazonSocial": "Jumbo Retail Argentina S.A.", "comercioId": 9, "sucursalId": "656"}, "39": {"banderaId": 2, "lat": "-24.804722", "lng": "-65.419722", "sucursalNombre": "Salta", "id": "11-2-1011", "sucursalTipo": "Hipermercado", "provincia": "AR-A", "direccion": "Av Paraguay 1450", "banderaDescripcion": "Changomas", "localidad": "SALTA", "comercioRazonSocial": "Wal Mart Argentina S.R.L.", "comercioId": 11, "sucursalId": "1011"}, "40": {"banderaId": 1, "lat": "-24.78025", "lng": "-65.40298", "sucursalNombre": "SALTA", "id": "19-1-03330", "sucursalTipo": "Autoservicio", "provincia": "AR-A", "direccion": "Av Virrey Toledo Y Pas Roldan 0", "banderaDescripcion": "FULL", "localidad": "SALTA", "comercioRazonSocial": "Operadora de Estaciones de Servicios S.A.", "comercioId": 19, "sucursalId": "03330"}, "41": {"banderaId": 1, "lat": "-24.7981", "lng": "-65.4168", "sucursalNombre": "Esteco.", "id": "9-1-64", "sucursalTipo": "Supermercado", "provincia": "AR-A", "direccion": "Esteco Y Rioja 0", "banderaDescripcion": "Vea", "localidad": "SALTA", "comercioRazonSocial": "Jumbo Retail Argentina S.A.", "comercioId": 9, "sucursalId": "64"}, "42": {"banderaId": 1, "lat": "-24.7903", "lng": "-65.4118", "sucursalNombre": "Salta V.", "id": "9-1-658", "sucursalTipo": "Supermercado", "provincia": "AR-A", "direccion": "Florida 50", "banderaDescripcion": "Vea", "localidad": "SALTA", "comercioRazonSocial": "Jumbo Retail Argentina S.A.", "comercioId": 9, "sucursalId": "658"}, "43": {"banderaId": 1, "lat": "-24.7939", "lng": "-65.4142", "sucursalNombre": "Ituzaing\u00f3, Salta", "id": "9-1-731", "sucursalTipo": "Supermercado", "provincia": "AR-A", "direccion": "Ituzaing\u00f3 N\u00b0 374/376 374", "banderaDescripcion": "Vea", "localidad": "SALTA", "comercioRazonSocial": "Jumbo Retail Argentina S.A.", "comercioId": 9, "sucursalId": "731"}, "44": {"banderaId": 1, "lat": "-24.7958", "lng": "-65.4056", "sucursalNombre": "Parque San Mart\u00edn - Salta.", "id": "9-1-980", "sucursalTipo": "Supermercado", "provincia": "AR-A", "direccion": "Mendoza 225", "banderaDescripcion": "Vea", "localidad": "SALTA", "comercioRazonSocial": "Jumbo Retail Argentina S.A.", "comercioId": 9, "sucursalId": "980"}, "45": {"banderaId": 1, "lat": "-24.7846", "lng": "-65.4099", "sucursalNombre": "Mitre..", "id": "9-1-40", "sucursalTipo": "Supermercado", "provincia": "AR-A", "direccion": "Mitre 549 0", "banderaDescripcion": "Vea", "localidad": "SALTA", "comercioRazonSocial": "Jumbo Retail Argentina S.A.", "comercioId": 9, "sucursalId": "40"}, "46": {"banderaId": 2, "lat": "-23.144839", "lng": "-64.326264", "sucursalNombre": "Oran", "id": "11-2-1052", "sucursalTipo": "Hipermercado", "provincia": "AR-A", "direccion": "Av Pueyrredon Y Av Palacios None", "banderaDescripcion": "Changomas", "localidad": "SAN RAMON DE LA NUEVA ORAN", "comercioRazonSocial": "Wal Mart Argentina S.R.L.", "comercioId": 11, "sucursalId": "1052"}, "47": {"banderaId": 2, "lat": "-22.513333", "lng": "-63.792511", "sucursalNombre": "Tartagal", "id": "11-2-1078", "sucursalTipo": "Hipermercado", "provincia": "AR-A", "direccion": "Paraguay Y Ruta Nac. Nro. 34 None", "banderaDescripcion": "Changomas", "localidad": "TARTAGAL", "comercioRazonSocial": "Wal Mart Argentina S.R.L.", "comercioId": 11, "sucursalId": "1078"}, "48": {"banderaId": 1, "lat": "-35.428309", "lng": "-60.172551", "sucursalNombre": "CLC.25deMayo", "id": "36-1-4", "sucursalTipo": "Autoservicio", "provincia": "AR-B", "direccion": "Calle 9 1338", "banderaDescripcion": "SuperCLC", "localidad": "25 de Mayo", "comercioRazonSocial": "SUPERCLC S.A.", "comercioId": 36, "sucursalId": "4"}, "49": {"banderaId": 1, "lat": "-35.433295", "lng": "-60.166461", "sucursalNombre": "226 - 25 De Mayo", "id": "15-1-226", "sucursalTipo": "Autoservicio", "provincia": "AR-B", "direccion": "Cl Calle 9 Y Calle 32 1300", "banderaDescripcion": "Supermercados DIA", "localidad": "25 De Mayo", "comercioRazonSocial": "DIA Argentina S.A", "comercioId": 15, "sucursalId": "226"}, "50": {"banderaId": 3, "lat": "-34.605633", "lng": "-58.564882", "sucursalNombre": "Av. Urquiza 4855", "id": "10-3-521", "sucursalTipo": "Autoservicio", "provincia": "AR-B", "direccion": "Av. Urquiza 4855", "banderaDescripcion": "Express", "localidad": "3 de Febrero", "comercioRazonSocial": "INC S.A.", "comercioId": 10, "sucursalId": "521"}, "51": {"banderaId": 1, "lat": "-34.7803362", "lng": "-58.4791516", "sucursalNombre": "126 - 9 De Abril", "id": "15-1-126", "sucursalTipo": "Autoservicio", "provincia": "AR-B", "direccion": "Cl Oliver 958", "banderaDescripcion": "Supermercados DIA", "localidad": "9 De Abril", "comercioRazonSocial": "DIA Argentina S.A", "comercioId": 15, "sucursalId": "126"}, "52": {"banderaId": 1, "lat": "-35.456900", "lng": "-60.890510", "sucursalNombre": "9 DE JULIO", "id": "2-1-260", "sucursalTipo": "Supermercado", "provincia": "AR-B", "direccion": "Agustin Alvarez 261", "banderaDescripcion": "La Anonima", "localidad": "9 de Julio", "comercioRazonSocial": "S.A. Importadora y Exportadora de la Patagonia", "comercioId": 2, "sucursalId": "260"}, "53": {"banderaId": 1, "lat": "-35.451289482419185", "lng": "-60.89747634512605", "sucursalNombre": "9 de Julio", "id": "13-1-111", "sucursalTipo": "Supermercado", "provincia": "AR-B", "direccion": "Av. Mitre 2537", "banderaDescripcion": "Cooperativa Obrera Limitada de Consumo y Vivienda", "localidad": "9 de Julio", "comercioRazonSocial": "Cooperativa Obrera Limitada de Consumo y Vivienda", "comercioId": 13, "sucursalId": "111"}, "54": {"banderaId": 1, "lat": "-34.4802448", "lng": "-58.5056248", "sucursalNombre": "ALBARELLOS ", "id": "12-1-67", "sucursalTipo": "Supermercado", "provincia": "AR-B", "direccion": "Albarellos 854", "banderaDescripcion": "COTO CICSA", "localidad": "Acassuso", "comercioRazonSocial": "Coto Centro Integral de Comercializaci\u00f3n S.A.", "comercioId": 12, "sucursalId": "67"}, "55": {"banderaId": 2, "lat": "-34.476587", "lng": "-58.497758", "sucursalNombre": "Acassuso", "id": "10-2-252", "sucursalTipo": "Supermercado", "provincia": "AR-B", "direccion": "Av. Del Libertador 14893", "banderaDescripcion": "Market", "localidad": "Acassuso", "comercioRazonSocial": "INC S.A.", "comercioId": 10, "sucursalId": "252"}, "56": {"banderaId": 1, "lat": "-34.47436", "lng": "-58.50185", "sucursalNombre": "ACASSUSO", "id": "3-1-2", "sucursalTipo": "Autoservicio", "provincia": "AR-B", "direccion": "Av. Libertador 15301", "banderaDescripcion": "DEHEZA S.A.I.C.F. e I.", "localidad": "ACASSUSO", "comercioRazonSocial": "Deheza S.A.I.C.F. e I.", "comercioId": 3, "sucursalId": "2"}, "57": {"banderaId": 1, "lat": "-34.48157", "lng": "-58.50573", "sucursalNombre": "URQUIZA", "id": "3-1-1428", "sucursalTipo": "Autoservicio", "provincia": "AR-B", "direccion": "Av. Santa Fe 960", "banderaDescripcion": "DEHEZA S.A.I.C.F. e I.", "localidad": "ACASSUSO", "comercioRazonSocial": "Deheza S.A.I.C.F. e I.", "comercioId": 3, "sucursalId": "1428"}, "58": {"banderaId": 3, "lat": "-34.502410", "lng": "-58.668448", "sucursalNombre": "Rosario 4558", "id": "10-3-428", "sucursalTipo": "Autoservicio", "provincia": "AR-B", "direccion": "Rosario 4558", "banderaDescripcion": "Express", "localidad": "Adolfo Sordeaux", "comercioRazonSocial": "INC S.A.", "comercioId": 10, "sucursalId": "428"}, "59": {"banderaId": 1, "lat": "-34.504514", "lng": "-58.6671114", "sucursalNombre": "132 - Adolfo Sourdeaux", "id": "15-1-132", "sucursalTipo": "Autoservicio", "provincia": "AR-B", "direccion": "Cl Presidente Derqui 1164", "banderaDescripcion": "Supermercados DIA", "localidad": "Adolfo Sourdeaux", "comercioRazonSocial": "DIA Argentina S.A", "comercioId": 15, "sucursalId": "132"}, "60": {"banderaId": 1, "lat": "-34.80887", "lng": "-58.388804", "sucursalNombre": "1002 - Adrogue", "id": "15-1-1002", "sucursalTipo": "Supermercado", "provincia": "AR-B", "direccion": "Cl Espora 1462", "banderaDescripcion": "Supermercados DIA", "localidad": "Adrogue", "comercioRazonSocial": "DIA Argentina S.A", "comercioId": 15, "sucursalId": "1002"}, "61": {"banderaId": 1, "lat": "-34.7997695", "lng": "-58.3959092", "sucursalNombre": "182 - Adrogue", "id": "15-1-182", "sucursalTipo": "Autoservicio", "provincia": "AR-B", "direccion": "Cl Segui 750", "banderaDescripcion": "Supermercados DIA", "localidad": "Adrogue", "comercioRazonSocial": "DIA Argentina S.A", "comercioId": 15, "sucursalId": "182"}, "62": {"banderaId": 1, "lat": "-34.80085", "lng": "-58.40807", "sucursalNombre": "ADROGUE", "id": "19-1-02927", "sucursalTipo": "Autoservicio", "provincia": "AR-B", "direccion": "Av H. Yrigoyen Y Gral Frias 0", "banderaDescripcion": "FULL", "localidad": "ADROGUE", "comercioRazonSocial": "Operadora de Estaciones de Servicios S.A.", "comercioId": 19, "sucursalId": "02927"}, "63": {"banderaId": 1, "lat": "-34.798507", "lng": "-58.392057", "sucursalNombre": "Adrogue [Esteban Adrogu\u00e9 1061]", "id": "24-1-258", "sucursalTipo": "Supermercado", "provincia": "AR-B", "direccion": "Esteban Adrogu\u00e9 1061", "banderaDescripcion": "Simplicity", "localidad": "ADROGUE", "comercioRazonSocial": "Farmacity S.A.", "comercioId": 24, "sucursalId": "258"}, "64": {"banderaId": 1, "lat": "-34.812068", "lng": "-58.399417", "sucursalNombre": "Adrogu\u00e9", "id": "10-1-23", "sucursalTipo": "Hipermercado", "provincia": "AR-B", "direccion": "Hip\u00f3lito Yrigoyen 13500", "banderaDescripcion": "Hipermercado Carrefour", "localidad": "Adrogu\u00e9", "comercioRazonSocial": "INC S.A.", "comercioId": 10, "sucursalId": "23"}, "65": {"banderaId": 2, "lat": "-34.799052", "lng": "-58.395114", "sucursalNombre": "Adrogu\u00e9", "id": "10-2-388", "sucursalTipo": "Supermercado", "provincia": "AR-B", "direccion": "Segu\u00ed 849", "banderaDescripcion": "Market", "localidad": "Adrogu\u00e9", "comercioRazonSocial": "INC S.A.", "comercioId": 10, "sucursalId": "388"}, "66": {"banderaId": 1, "lat": "-34.46141", "lng": "-58.775516", "sucursalNombre": "89 - Alberti", "id": "15-1-89", "sucursalTipo": "Autoservicio", "provincia": "AR-B", "direccion": "Cl Hip.Irigoyen 465", "banderaDescripcion": "Supermercados DIA", "localidad": "Alberti", "comercioRazonSocial": "DIA Argentina S.A", "comercioId": 15, "sucursalId": "89"}, "67": {"banderaId": 1, "lat": "-34.7073192", "lng": "-58.5165375", "sucursalNombre": "71 - Aldo Bonzi", "id": "15-1-71", "sucursalTipo": "Autoservicio", "provincia": "AR-B", "direccion": "Cl Jose Alico 969", "banderaDescripcion": "Supermercados DIA", "localidad": "Aldo Bonzi", "comercioRazonSocial": "DIA Argentina S.A", "comercioId": 15, "sucursalId": "71"}, "68": {"banderaId": 1, "lat": "-34.7117", "lng": "-58.5064", "sucursalNombre": "RICHIERI  EZEIZA", "id": "19-1-02536", "sucursalTipo": "Autoservicio", "provincia": "AR-B", "direccion": "Aut. Riccheri  Km 33 (Asc.) 0", "banderaDescripcion": "FULL", "localidad": "ALDO BONZI", "comercioRazonSocial": "Operadora de Estaciones de Servicios S.A.", "comercioId": 19, "sucursalId": "02536"}, "69": {"banderaId": 1, "lat": "-34.71472", "lng": "-58.50775", "sucursalNombre": "RICHIERI   CAPITAL", "id": "19-1-02563", "sucursalTipo": "Autoservicio", "provincia": "AR-B", "direccion": "Aut. Riccheri Km 36.250 (Desc) 0", "banderaDescripcion": "FULL", "localidad": "ALDO BONZI", "comercioRazonSocial": "Operadora de Estaciones de Servicios S.A.", "comercioId": 19, "sucursalId": "02563"}, "70": {"banderaId": 1, "lat": "-34.984291", "lng": "-58.376123", "sucursalNombre": "96 - Alejandro Korn", "id": "15-1-96", "sucursalTipo": "Autoservicio", "provincia": "AR-B", "direccion": "Cl Boulev De Mayo Y Av Mitre 4138", "banderaDescripcion": "Supermercados DIA", "localidad": "Alejandro Korn", "comercioRazonSocial": "DIA Argentina S.A", "comercioId": 15, "sucursalId": "96"}, "71": {"banderaId": 1, "lat": "-34.7693312", "lng": "-58.3556143", "sucursalNombre": "67 - Almirante Brown", "id": "15-1-67", "sucursalTipo": "Autoservicio", "provincia": "AR-B", "direccion": "Cl Salta 957", "banderaDescripcion": "Supermercados DIA", "localidad": "Almirante Brown", "comercioRazonSocial": "DIA Argentina S.A", "comercioId": 15, "sucursalId": "67"}, "72": {"banderaId": 3, "lat": "-34.815906", "lng": "-58.427561", "sucursalNombre": "Guatamb\u00fa  12", "id": "10-3-451", "sucursalTipo": "Autoservicio", "provincia": "AR-B", "direccion": "Guatamb\u00fa 12", "banderaDescripcion": "Express", "localidad": "Almirante Brown", "comercioRazonSocial": "INC S.A.", "comercioId": 10, "sucursalId": "451"}, "73": {"banderaId": 2, "lat": "-34.7993", "lng": "-58.4053", "sucursalNombre": "Adrogu\u00e9.", "id": "9-2-37", "sucursalTipo": "Supermercado", "provincia": "AR-B", "direccion": "Amenado 302", "banderaDescripcion": "Disco", "localidad": "ALMIRANTE BROWN", "comercioRazonSocial": "Jumbo Retail Argentina S.A.", "comercioId": 9, "sucursalId": "37"}, "74": {"banderaId": 2, "lat": "-34.816630", "lng": "-58.389897", "sucursalNombre": "Almirante Brown", "id": "11-2-1028", "sucursalTipo": "Hipermercado", "provincia": "AR-B", "direccion": "Av Espora 2074", "banderaDescripcion": "Changomas", "localidad": "ALMIRANTE BROWN", "comercioRazonSocial": "Wal Mart Argentina S.R.L.", "comercioId": 11, "sucursalId": "1028"}, "75": {"banderaId": 1, "lat": "-35.487759", "lng": "-62.975086", "sucursalNombre": "367 - America", "id": "15-1-367", "sucursalTipo": "Autoservicio", "provincia": "AR-B", "direccion": "San Martin 156", "banderaDescripcion": "Supermercados DIA", "localidad": "America", "comercioRazonSocial": "DIA Argentina S.A", "comercioId": 15, "sucursalId": "367"}, "76": {"banderaId": 1, "lat": "-35.491900", "lng": "-62.979870", "sucursalNombre": "AMERICA II", "id": "2-1-148", "sucursalTipo": "Supermercado", "provincia": "AR-B", "direccion": "Viamonte 240", "banderaDescripcion": "La Anonima", "localidad": "America", "comercioRazonSocial": "S.A. Importadora y Exportadora de la Patagonia", "comercioId": 2, "sucursalId": "148"}, "77": {"banderaId": 1, "lat": "-34.061751", "lng": "-60.104689", "sucursalNombre": "243 - Arrecifes", "id": "15-1-243", "sucursalTipo": "Autoservicio", "provincia": "AR-B", "direccion": "Cl Ricardo Gutierrez 435", "banderaDescripcion": "Supermercados DIA", "localidad": "Arrecifes", "comercioRazonSocial": "DIA Argentina S.A", "comercioId": 15, "sucursalId": "243"}, "78": {"banderaId": 1, "lat": "-34.066450", "lng": "-60.104420", "sucursalNombre": "ARRECIFES", "id": "2-1-100", "sucursalTipo": "Supermercado", "provincia": "AR-B", "direccion": "Dr. Carlos Merlasino 524", "banderaDescripcion": "La Anonima", "localidad": "Arrecifes", "comercioRazonSocial": "S.A. Importadora y Exportadora de la Patagonia", "comercioId": 2, "sucursalId": "100"}, "79": {"banderaId": 1, "lat": "-34.7177549", "lng": "-58.3442232", "sucursalNombre": "1047 - Avellaneda", "id": "15-1-1047", "sucursalTipo": "Supermercado", "provincia": "AR-B", "direccion": "Av Belgrano 4222", "banderaDescripcion": "Supermercados DIA", "localidad": "Avellaneda", "comercioRazonSocial": "DIA Argentina S.A", "comercioId": 15, "sucursalId": "1047"}, "80": {"banderaId": 2, "lat": "-34.661465", "lng": "-58.368212", "sucursalNombre": "Avellaneda II", "id": "10-2-101", "sucursalTipo": "Supermercado", "provincia": "AR-B", "direccion": "Av. Belgrano 422", "banderaDescripcion": "Market", "localidad": "Avellaneda", "comercioRazonSocial": "INC S.A.", "comercioId": 10, "sucursalId": "101"}, "81": {"banderaId": 1, "lat": "-34.6709522", "lng": "-58.3904001", "sucursalNombre": "1505 - Avellaneda", "id": "15-1-1505", "sucursalTipo": "Autoservicio", "provincia": "AR-B", "direccion": "Av Galicia 759", "banderaDescripcion": "Supermercados DIA", "localidad": "Avellaneda", "comercioRazonSocial": "DIA Argentina S.A", "comercioId": 15, "sucursalId": "1505"}, "82": {"banderaId": 1, "lat": "-34.659544", "lng": "-58.375462", "sucursalNombre": "Avellaneda", "id": "10-1-20", "sucursalTipo": "Hipermercado", "provincia": "AR-B", "direccion": "Av. Pav\u00f3n 299", "banderaDescripcion": "Hipermercado Carrefour", "localidad": "Avellaneda", "comercioRazonSocial": "INC S.A.", "comercioId": 10, "sucursalId": "20"}, "83": {"banderaId": 1, "lat": "-34.661258", "lng": "-58.364139", "sucursalNombre": "1534 - Avellaneda", "id": "15-1-1534", "sucursalTipo": "Supermercado", "provincia": "AR-B", "direccion": "Cl 25 De Mayo 119", "banderaDescripcion": "Supermercados DIA", "localidad": "Avellaneda", "comercioRazonSocial": "DIA Argentina S.A", "comercioId": 15, "sucursalId": "1534"}, "84": {"banderaId": 1, "lat": "-34.66137", "lng": "-58.36305", "sucursalNombre": "JOSIMAR", "id": "29-1-8", "sucursalTipo": "Supermercado", "provincia": "AR-B", "direccion": "Florentino Ameghino 754", "banderaDescripcion": "JOSIMAR SUPERMERCADOS", "localidad": "Avellaneda", "comercioRazonSocial": "Josimar S.A.", "comercioId": 29, "sucursalId": "8"}, "85": {"banderaId": 1, "lat": "-34.6650066", "lng": "-58.3623175", "sucursalNombre": "AVELLANEDA ", "id": "12-1-101", "sucursalTipo": "Supermercado", "provincia": "AR-B", "direccion": "Italia 62", "banderaDescripcion": "COTO CICSA", "localidad": "Avellaneda", "comercioRazonSocial": "Coto Centro Integral de Comercializaci\u00f3n S.A.", "comercioId": 12, "sucursalId": "101"}, "86": {"banderaId": 1, "lat": "-34.68495", "lng": "-58.30547", "sucursalNombre": "AUTOPISTA SUR", "id": "19-1-03298", "sucursalTipo": "Autoservicio", "provincia": "AR-B", "direccion": "Aut Bs As-La Plata K13.500 Asc 0", "banderaDescripcion": "FULL", "localidad": "AVELLANEDA", "comercioRazonSocial": "Operadora de Estaciones de Servicios S.A.", "comercioId": 19, "sucursalId": "03298"}, "87": {"banderaId": 1, "lat": "-34.68492", "lng": "-58.30323", "sucursalNombre": "AUTOPISTA NORTE", "id": "19-1-03299", "sucursalTipo": "Autoservicio", "provincia": "AR-B", "direccion": "Aut Bs As-La Plata K13.500 Des 0", "banderaDescripcion": "FULL", "localidad": "AVELLANEDA", "comercioRazonSocial": "Operadora de Estaciones de Servicios S.A.", "comercioId": 19, "sucursalId": "03299"}, "88": {"banderaId": 1, "lat": "-34.66565", "lng": "-58.3659", "sucursalNombre": "AVELLANEDA", "id": "19-1-00363", "sucursalTipo": "Autoservicio", "provincia": "AR-B", "direccion": "Av. Belgrano 791 Y 9 De Julio 791", "banderaDescripcion": "FULL", "localidad": "AVELLANEDA", "comercioRazonSocial": "Operadora de Estaciones de Servicios S.A.", "comercioId": 19, "sucursalId": "00363"}, "89": {"banderaId": 5, "lat": "-34.677511", "lng": "-58.366667", "sucursalNombre": "Avellaneda", "id": "11-5-2999", "sucursalTipo": "Hipermercado", "provincia": "AR-B", "direccion": "Av Guemes 861", "banderaDescripcion": "Walmart SuperCenter", "localidad": "AVELLANEDA", "comercioRazonSocial": "Wal Mart Argentina S.R.L.", "comercioId": 11, "sucursalId": "2999"}, "90": {"banderaId": 1, "lat": "-34.66938", "lng": "-58.38085", "sucursalNombre": "AVELLANEDA VIAS", "id": "19-1-03326", "sucursalTipo": "Autoservicio", "provincia": "AR-B", "direccion": "Av. Hipolito Yrigoyen 1071", "banderaDescripcion": "FULL", "localidad": "AVELLANEDA", "comercioRazonSocial": "Operadora de Estaciones de Servicios S.A.", "comercioId": 19, "sucursalId": "03326"}, "91": {"banderaId": 1, "lat": "-34.663712", "lng": "-58.363085", "sucursalNombre": "AVMitre [Av. Mitre 949]", "id": "24-1-260", "sucursalTipo": "Supermercado", "provincia": "AR-B", "direccion": "Av. Mitre 949", "banderaDescripcion": "Simplicity", "localidad": "AVELLANEDA", "comercioRazonSocial": "Farmacity S.A.", "comercioId": 24, "sucursalId": "260"}, "92": {"banderaId": 1, "lat": "-34.677326", "lng": "-58.331551", "sucursalNombre": "ARROYO SARANDI", "id": "3-1-1584", "sucursalTipo": "Autoservicio", "provincia": "AR-B", "direccion": "Tres Arroyos 3802", "banderaDescripcion": "DEHEZA S.A.I.C.F. e I.", "localidad": "AVELLANEDA", "comercioRazonSocial": "Deheza S.A.I.C.F. e I.", "comercioId": 3, "sucursalId": "1584"}, "93": {"banderaId": 1, "lat": "-37.15398", "lng": "-58.487377", "sucursalNombre": "257 - Ayacucho", "id": "15-1-257", "sucursalTipo": "Autoservicio", "provincia": "AR-B", "direccion": "Cl Alem 925", "banderaDescripcion": "Supermercados DIA", "localidad": "Ayacucho", "comercioRazonSocial": "DIA Argentina S.A", "comercioId": 15, "sucursalId": "257"}, "94": {"banderaId": 4, "lat": "-37.153071", "lng": "-58.485816", "sucursalNombre": "SuperCentral.Ayacucho", "id": "36-4-54", "sucursalTipo": "Autoservicio", "provincia": "AR-B", "direccion": "Espa\u00f1a 994", "banderaDescripcion": "SuperCLC", "localidad": "Ayacucho", "comercioRazonSocial": "SUPERCLC S.A.", "comercioId": 36, "sucursalId": "54"}, "95": {"banderaId": 1, "lat": "-36.788827761866905", "lng": "-59.871529162628576", "sucursalNombre": "Azul II", "id": "13-1-56", "sucursalTipo": "Supermercado", "provincia": "AR-B", "direccion": "Av. 25 De Mayo 1272", "banderaDescripcion": "Cooperativa Obrera Limitada de Consumo y Vivienda", "localidad": "Azul", "comercioRazonSocial": "Cooperativa Obrera Limitada de Consumo y Vivienda", "comercioId": 13, "sucursalId": "56"}, "96": {"banderaId": 1, "lat": "-36.78521552908544", "lng": "-59.849216222719406", "sucursalNombre": "Azul", "id": "13-1-20", "sucursalTipo": "Hipermercado", "provincia": "AR-B", "direccion": "Av. Piazza 1101", "banderaDescripcion": "Cooperativa Obrera Limitada de Consumo y Vivienda", "localidad": "Azul", "comercioRazonSocial": "Cooperativa Obrera Limitada de Consumo y Vivienda", "comercioId": 13, "sucursalId": "20"}, "97": {"banderaId": 1, "lat": "-36.7810658", "lng": "-59.8595911", "sucursalNombre": "265 - Azul", "id": "15-1-265", "sucursalTipo": "Autoservicio", "provincia": "AR-B", "direccion": "Av San Martin 676", "banderaDescripcion": "Supermercados DIA", "localidad": "Azul", "comercioRazonSocial": "DIA Argentina S.A", "comercioId": 15, "sucursalId": "265"}, "98": {"banderaId": 1, "lat": "-36.783740", "lng": "-59.852910", "sucursalNombre": "AZUL", "id": "2-1-185", "sucursalTipo": "Supermercado", "provincia": "AR-B", "direccion": "Monse\u00f1or Caneva 560", "banderaDescripcion": "La Anonima", "localidad": "Azul", "comercioRazonSocial": "S.A. Importadora y Exportadora de la Patagonia", "comercioId": 2, "sucursalId": "185"}, "99": {"banderaId": 1, "lat": "-36.79458", "lng": "-59.8425", "sucursalNombre": "ACA AZUL", "id": "19-1-01173", "sucursalTipo": "Autoservicio", "provincia": "AR-B", "direccion": "R. Nacional 3 Km 299 (Desc.) 0", "banderaDescripcion": "FULL", "localidad": "AZUL", "comercioRazonSocial": "Operadora de Estaciones de Servicios S.A.", "comercioId": 19, "sucursalId": "01173"}, "100": {"banderaId": 1, "lat": "-38.704", "lng": "-62.2717", "sucursalNombre": "Universitario", "id": "23-1-6290", "sucursalTipo": "Autoservicio", "provincia": "AR-B", "direccion": "Av Alem 1086", "banderaDescripcion": "Axion Energy", "localidad": "Bahia Blanca", "comercioRazonSocial": "Pan American Energy LLC Argentina", "comercioId": 23, "sucursalId": "6290"}, "101": {"banderaId": 1, "lat": "-38.6976", "lng": "-62.2453", "sucursalNombre": "Bahia Blanca", "id": "23-1-6289", "sucursalTipo": "Autoservicio", "provincia": "AR-B", "direccion": "Sarmiento 4114", "banderaDescripcion": "Axion Energy", "localidad": "Bahia Blanca", "comercioRazonSocial": "Pan American Energy LLC Argentina", "comercioId": 23, "sucursalId": "6289"}, "102": {"banderaId": 1, "lat": "-38.7199", "lng": "-62.26875", "sucursalNombre": "BAHIA BLANCA", "id": "19-1-01458", "sucursalTipo": "Autoservicio", "provincia": "AR-B", "direccion": "Avenida Colon 111 111", "banderaDescripcion": "FULL", "localidad": "BAHIA BLANCA", "comercioRazonSocial": "Operadora de Estaciones de Servicios S.A.", "comercioId": 19, "sucursalId": "01458"}, "103": {"banderaId": 1, "lat": "-38.73008", "lng": "-62.25363", "sucursalNombre": "PARCHAPE", "id": "19-1-03319", "sucursalTipo": "Autoservicio", "provincia": "AR-B", "direccion": "Avenida Parchappe Y Falucho 63", "banderaDescripcion": "FULL", "localidad": "BAHIA BLANCA", "comercioRazonSocial": "Operadora de Estaciones de Servicios S.A.", "comercioId": 19, "sucursalId": "03319"}, "104": {"banderaId": 1, "lat": "-38.72048", "lng": "-62.2555", "sucursalNombre": "BAHIA BLANCA BRANDSEN", "id": "19-1-01462", "sucursalTipo": "Autoservicio", "provincia": "AR-B", "direccion": "Brandsen N\u009b301 301", "banderaDescripcion": "FULL", "localidad": "BAHIA BLANCA", "comercioRazonSocial": "Operadora de Estaciones de Servicios S.A.", "comercioId": 19, "sucursalId": "01462"}, "105": {"banderaId": 1, "lat": "-38.7301", "lng": "-62.2502", "sucursalNombre": "Bah\u00eda Blanca I", "id": "9-1-122", "sucursalTipo": "Supermercado", "provincia": "AR-B", "direccion": "Capitan Maetinez 1356", "banderaDescripcion": "Vea", "localidad": "BAHIA BLANCA", "comercioRazonSocial": "Jumbo Retail Argentina S.A.", "comercioId": 9, "sucursalId": "122"}, "106": {"banderaId": 1, "lat": "-38.7081", "lng": "-62.2686", "sucursalNombre": "Bah\u00eda Blanca. II.", "id": "9-1-127", "sucursalTipo": "Supermercado", "provincia": "AR-B", "direccion": "Casanova Eliseo 472", "banderaDescripcion": "Vea", "localidad": "BAHIA BLANCA", "comercioRazonSocial": "Jumbo Retail Argentina S.A.", "comercioId": 9, "sucursalId": "127"}, "107": {"banderaId": 5, "lat": "-38.684722", "lng": "-62.227778", "sucursalNombre": "Bahia BL", "id": "11-5-3602", "sucursalTipo": "Hipermercado", "provincia": "AR-B", "direccion": "Sarmiento 4114", "banderaDescripcion": "Walmart SuperCenter", "localidad": "BAHIA BLANCA", "comercioRazonSocial": "Wal Mart Argentina S.R.L.", "comercioId": 11, "sucursalId": "3602"}, "108": {"banderaId": 1, "lat": "-38.6987", "lng": "-62.2114", "sucursalNombre": "B\u00b0 Patagonia", "id": "13-1-54", "sucursalTipo": "Supermercado", "provincia": "AR-B", "direccion": "14 De Julio 4099", "banderaDescripcion": "Cooperativa Obrera Limitada de Consumo y Vivienda", "localidad": "Bah\u00eda Blanca", "comercioRazonSocial": "Cooperativa Obrera Limitada de Consumo y Vivienda", "comercioId": 13, "sucursalId": "54"}, "109": {"banderaId": 1, "lat": "-38.72441388509382", "lng": "-62.276245190143584", "sucursalNombre": "B\u00b0 Almafuerte", "id": "13-1-6", "sucursalTipo": "Supermercado", "provincia": "AR-B", "direccion": "9 De Julio 136", "banderaDescripcion": "Cooperativa Obrera Limitada de Consumo y Vivienda", "localidad": "Bah\u00eda Blanca", "comercioRazonSocial": "Cooperativa Obrera Limitada de Consumo y Vivienda", "comercioId": 13, "sucursalId": "6"}, "110": {"banderaId": 1, "lat": "-38.68393932708354", "lng": "-62.29150968720205", "sucursalNombre": "Alem", "id": "13-1-110", "sucursalTipo": "Supermercado", "provincia": "AR-B", "direccion": "Alem 3170", "banderaDescripcion": "Cooperativa Obrera Limitada de Consumo y Vivienda", "localidad": "Bah\u00eda Blanca", "comercioRazonSocial": "Cooperativa Obrera Limitada de Consumo y Vivienda", "comercioId": 13, "sucursalId": "110"}, "111": {"banderaId": 1, "lat": "-38.7055", "lng": "-62.3028", "sucursalNombre": "B\u00b0 Richieri", "id": "13-1-46", "sucursalTipo": "Supermercado", "provincia": "AR-B", "direccion": "Almafuerte 2544", "banderaDescripcion": "Cooperativa Obrera Limitada de Consumo y Vivienda", "localidad": "Bah\u00eda Blanca", "comercioRazonSocial": "Cooperativa Obrera Limitada de Consumo y Vivienda", "comercioId": 13, "sucursalId": "46"}, "112": {"banderaId": 1, "lat": "-38.71263348653015", "lng": "-62.257506122684504", "sucursalNombre": "Alsina", "id": "13-1-15", "sucursalTipo": "Supermercado", "provincia": "AR-B", "direccion": "Alsina 645", "banderaDescripcion": "Cooperativa Obrera Limitada de Consumo y Vivienda", "localidad": "Bah\u00eda Blanca", "comercioRazonSocial": "Cooperativa Obrera Limitada de Consumo y Vivienda", "comercioId": 13, "sucursalId": "15"}, "113": {"banderaId": 1, "lat": "-38.731251517754664", "lng": "-62.282264373016346", "sucursalNombre": "B\u00b0 Col\u00f3n", "id": "13-1-25", "sucursalTipo": "Supermercado", "provincia": "AR-B", "direccion": "Av. Col\u00f3n 1380", "banderaDescripcion": "Cooperativa Obrera Limitada de Consumo y Vivienda", "localidad": "Bah\u00eda Blanca", "comercioRazonSocial": "Cooperativa Obrera Limitada de Consumo y Vivienda", "comercioId": 13, "sucursalId": "25"}, "114": {"banderaId": 1, "lat": "-38.7225", "lng": "-62.289499999999975", "sucursalNombre": "B\u00b0 Noroeste", "id": "13-1-4", "sucursalTipo": "Supermercado", "provincia": "AR-B", "direccion": "Avellaneda 826", "banderaDescripcion": "Cooperativa Obrera Limitada de Consumo y Vivienda", "localidad": "Bah\u00eda Blanca", "comercioRazonSocial": "Cooperativa Obrera Limitada de Consumo y Vivienda", "comercioId": 13, "sucursalId": "4"}, "115": {"banderaId": 1, "lat": "-38.71603014882896", "lng": "-62.248820006716414", "sucursalNombre": "Bella Vista", "id": "13-1-50", "sucursalTipo": "Supermercado", "provincia": "AR-B", "direccion": "Av. Pringles 50", "banderaDescripcion": "Cooperativa Obrera Limitada de Consumo y Vivienda", "localidad": "Bah\u00eda Blanca", "comercioRazonSocial": "Cooperativa Obrera Limitada de Consumo y Vivienda", "comercioId": 13, "sucursalId": "50"}, "116": {"banderaId": 1, "lat": "-38.782990385228224", "lng": "-62.265877433204594", "sucursalNombre": "White", "id": "13-1-1", "sucursalTipo": "Supermercado", "provincia": "AR-B", "direccion": "Av. San Mart\u00edn 3634", "banderaDescripcion": "Cooperativa Obrera Limitada de Consumo y Vivienda", "localidad": "Bah\u00eda Blanca", "comercioRazonSocial": "Cooperativa Obrera Limitada de Consumo y Vivienda", "comercioId": 13, "sucursalId": "1"}, "117": {"banderaId": 1, "lat": "-38.71971751065668", "lng": "-62.26284139881136", "sucursalNombre": "Centro", "id": "13-1-5", "sucursalTipo": "Hipermercado", "provincia": "AR-B", "direccion": "Belgrano 45", "banderaDescripcion": "Cooperativa Obrera Limitada de Consumo y Vivienda", "localidad": "Bah\u00eda Blanca", "comercioRazonSocial": "Cooperativa Obrera Limitada de Consumo y Vivienda", "comercioId": 13, "sucursalId": "5"}, "118": {"banderaId": 1, "lat": "-38.7364", "lng": "-62.2697", "sucursalNombre": "B\u00b0 San Mart\u00edn", "id": "13-1-9", "sucursalTipo": "Supermercado", "provincia": "AR-B", "direccion": "Brickman 882", "banderaDescripcion": "Cooperativa Obrera Limitada de Consumo y Vivienda", "localidad": "Bah\u00eda Blanca", "comercioRazonSocial": "Cooperativa Obrera Limitada de Consumo y Vivienda", "comercioId": 13, "sucursalId": "9"}, "119": {"banderaId": 2, "lat": "-38.720410", "lng": "-62.267942", "sucursalNombre": "Bahia Blanca I", "id": "10-2-114", "sucursalTipo": "Supermercado", "provincia": "AR-B", "direccion": "Brown 51", "banderaDescripcion": "Market", "localidad": "Bah\u00eda Blanca", "comercioRazonSocial": "INC S.A.", "comercioId": 10, "sucursalId": "114"}, "120": {"banderaId": 1, "lat": "-38.7126", "lng": "-62.281499999999994", "sucursalNombre": "B\u00b0 Pac\u00edfico", "id": "13-1-35", "sucursalTipo": "Supermercado", "provincia": "AR-B", "direccion": "Charlone 253", "banderaDescripcion": "Cooperativa Obrera Limitada de Consumo y Vivienda", "localidad": "Bah\u00eda Blanca", "comercioRazonSocial": "Cooperativa Obrera Limitada de Consumo y Vivienda", "comercioId": 13, "sucursalId": "35"}, "121": {"banderaId": 1, "lat": "-38.7289", "lng": "-62.27109999999999", "sucursalNombre": "Espa\u00f1a", "id": "13-1-10", "sucursalTipo": "Supermercado", "provincia": "AR-B", "direccion": "Espa\u00f1a 737", "banderaDescripcion": "Cooperativa Obrera Limitada de Consumo y Vivienda", "localidad": "Bah\u00eda Blanca", "comercioRazonSocial": "Cooperativa Obrera Limitada de Consumo y Vivienda", "comercioId": 13, "sucursalId": "10"}, "122": {"banderaId": 1, "lat": "-38.72", "lng": "-62.257799999999975", "sucursalNombre": "General Paz", "id": "13-1-51", "sucursalTipo": "Supermercado", "provincia": "AR-B", "direccion": "General Paz 249", "banderaDescripcion": "Cooperativa Obrera Limitada de Consumo y Vivienda", "localidad": "Bah\u00eda Blanca", "comercioRazonSocial": "Cooperativa Obrera Limitada de Consumo y Vivienda", "comercioId": 13, "sucursalId": "51"}, "123": {"banderaId": 1, "lat": "-38.69972750987872", "lng": "-62.275134404754624", "sucursalNombre": "Hiper Aguado", "id": "13-1-28", "sucursalTipo": "Hipermercado", "provincia": "AR-B", "direccion": "Guatemala 533", "banderaDescripcion": "Cooperativa Obrera Limitada de Consumo y Vivienda", "localidad": "Bah\u00eda Blanca", "comercioRazonSocial": "Cooperativa Obrera Limitada de Consumo y Vivienda", "comercioId": 13, "sucursalId": "28"}, "124": {"banderaId": 1, "lat": "-38.7144", "lng": "-62.262", "sucursalNombre": "Yrigoyen", "id": "13-1-53", "sucursalTipo": "Supermercado", "provincia": "AR-B", "direccion": "H. Yrigoyen 361", "banderaDescripcion": "Cooperativa Obrera Limitada de Consumo y Vivienda", "localidad": "Bah\u00eda Blanca", "comercioRazonSocial": "Cooperativa Obrera Limitada de Consumo y Vivienda", "comercioId": 13, "sucursalId": "53"}, "125": {"banderaId": 1, "lat": "-38.72810880771607", "lng": "-62.22958583068851", "sucursalNombre": "B\u00b0 Villa Libre", "id": "13-1-44", "sucursalTipo": "Supermercado", "provincia": "AR-B", "direccion": "L\u00e1inez 2251", "banderaDescripcion": "Cooperativa Obrera Limitada de Consumo y Vivienda", "localidad": "Bah\u00eda Blanca", "comercioRazonSocial": "Cooperativa Obrera Limitada de Consumo y Vivienda", "comercioId": 13, "sucursalId": "44"}, "126": {"banderaId": 1, "lat": "-38.7185", "lng": "-62.299800000000005", "sucursalNombre": "Pampa Central", "id": "13-1-33", "sucursalTipo": "Supermercado", "provincia": "AR-B", "direccion": "M. Rodr\u00edguez 1446", "banderaDescripcion": "Cooperativa Obrera Limitada de Consumo y Vivienda", "localidad": "Bah\u00eda Blanca", "comercioRazonSocial": "Cooperativa Obrera Limitada de Consumo y Vivienda", "comercioId": 13, "sucursalId": "33"}, "127": {"banderaId": 1, "lat": "-38.70776946221014", "lng": "-62.26739162209924", "sucursalNombre": "B\u00b0 Universitario", "id": "13-1-12", "sucursalTipo": "Supermercado", "provincia": "AR-B", "direccion": "Paraguay 445", "banderaDescripcion": "Cooperativa Obrera Limitada de Consumo y Vivienda", "localidad": "Bah\u00eda Blanca", "comercioRazonSocial": "Cooperativa Obrera Limitada de Consumo y Vivienda", "comercioId": 13, "sucursalId": "12"}, "128": {"banderaId": 1, "lat": "-38.754831697437496", "lng": "-62.265606122684574", "sucursalNombre": "Villa Rosas", "id": "13-1-11", "sucursalTipo": "Supermercado", "provincia": "AR-B", "direccion": "Perito Moreno 2132", "banderaDescripcion": "Cooperativa Obrera Limitada de Consumo y Vivienda", "localidad": "Bah\u00eda Blanca", "comercioRazonSocial": "Cooperativa Obrera Limitada de Consumo y Vivienda", "comercioId": 13, "sucursalId": "11"}, "129": {"banderaId": 1, "lat": "-38.73870376143402", "lng": "-62.21698734722139", "sucursalNombre": "Rosendo L\u00f3pez", "id": "13-1-32", "sucursalTipo": "Supermercado", "provincia": "AR-B", "direccion": "Rinc\u00f3n 3490", "banderaDescripcion": "Cooperativa Obrera Limitada de Consumo y Vivienda", "localidad": "Bah\u00eda Blanca", "comercioRazonSocial": "Cooperativa Obrera Limitada de Consumo y Vivienda", "comercioId": 13, "sucursalId": "32"}, "130": {"banderaId": 1, "lat": "-38.715759146929834", "lng": "-62.27162326850896", "sucursalNombre": "Roca", "id": "13-1-18", "sucursalTipo": "Supermercado", "provincia": "AR-B", "direccion": "Roca 34", "banderaDescripcion": "Cooperativa Obrera Limitada de Consumo y Vivienda", "localidad": "Bah\u00eda Blanca", "comercioRazonSocial": "Cooperativa Obrera Limitada de Consumo y Vivienda", "comercioId": 13, "sucursalId": "18"}, "131": {"banderaId": 1, "lat": "-38.6986", "lng": "-62.2441", "sucursalNombre": "Hiper Shopping", "id": "13-1-42", "sucursalTipo": "Hipermercado", "provincia": "AR-B", "direccion": "Sarmiento 2153", "banderaDescripcion": "Cooperativa Obrera Limitada de Consumo y Vivienda", "localidad": "Bah\u00eda Blanca", "comercioRazonSocial": "Cooperativa Obrera Limitada de Consumo y Vivienda", "comercioId": 13, "sucursalId": "42"}, "132": {"banderaId": 1, "lat": "-38.73543138360701", "lng": "-62.23040688095091", "sucursalNombre": "S\u00f3crates", "id": "13-1-13", "sucursalTipo": "Supermercado", "provincia": "AR-B", "direccion": "S\u00f3crates 2642", "banderaDescripcion": "Cooperativa Obrera Limitada de Consumo y Vivienda", "localidad": "Bah\u00eda Blanca", "comercioRazonSocial": "Cooperativa Obrera Limitada de Consumo y Vivienda", "comercioId": 13, "sucursalId": "13"}, "133": {"banderaId": 1, "lat": "-38.73337836454684", "lng": "-62.26018774515978", "sucursalNombre": "B\u00b0 Pedro Pico", "id": "13-1-23", "sucursalTipo": "Supermercado", "provincia": "AR-B", "direccion": "Thompson 1133", "banderaDescripcion": "Cooperativa Obrera Limitada de Consumo y Vivienda", "localidad": "Bah\u00eda Blanca", "comercioRazonSocial": "Cooperativa Obrera Limitada de Consumo y Vivienda", "comercioId": 13, "sucursalId": "23"}, "134": {"banderaId": 1, "lat": "-38.7417", "lng": "-62.2672", "sucursalNombre": "Villa Ressia", "id": "13-1-49", "sucursalTipo": "Supermercado", "provincia": "AR-B", "direccion": "Tte. Far\u00edas 1283", "banderaDescripcion": "Cooperativa Obrera Limitada de Consumo y Vivienda", "localidad": "Bah\u00eda Blanca", "comercioRazonSocial": "Cooperativa Obrera Limitada de Consumo y Vivienda", "comercioId": 13, "sucursalId": "49"}, "135": {"banderaId": 1, "lat": "-38.7022", "lng": "-62.29160000000002", "sucursalNombre": "B\u00b0 San Roque", "id": "13-1-24", "sucursalTipo": "Supermercado", "provincia": "AR-B", "direccion": "Vieytes 2139", "banderaDescripcion": "Cooperativa Obrera Limitada de Consumo y Vivienda", "localidad": "Bah\u00eda Blanca", "comercioRazonSocial": "Cooperativa Obrera Limitada de Consumo y Vivienda", "comercioId": 13, "sucursalId": "24"}, "136": {"banderaId": 1, "lat": "-38.728791630262535", "lng": "-62.2442264146805", "sucursalNombre": "Villa Mitre", "id": "13-1-2", "sucursalTipo": "Supermercado", "provincia": "AR-B", "direccion": "Washington 437", "banderaDescripcion": "Cooperativa Obrera Limitada de Consumo y Vivienda", "localidad": "Bah\u00eda Blanca", "comercioRazonSocial": "Cooperativa Obrera Limitada de Consumo y Vivienda", "comercioId": 13, "sucursalId": "2"}, "137": {"banderaId": 1, "lat": "-37.849510", "lng": "-58.261330", "sucursalNombre": "Balcarce", "id": "21-1-19", "sucursalTipo": "Supermercado", "provincia": "AR-B", "direccion": "Av Kelly 792", "banderaDescripcion": "Toledo", "localidad": "Balcarce", "comercioRazonSocial": "Supermercados Toledo S.A.", "comercioId": 21, "sucursalId": "19"}, "138": {"banderaId": 1, "lat": "-37.833135", "lng": "-58.237878", "sucursalNombre": "Balcarce", "id": "10-1-58", "sucursalTipo": "Hipermercado", "provincia": "AR-B", "direccion": "Av. San Mart\u00edn 405", "banderaDescripcion": "Hipermercado Carrefour", "localidad": "Balcarce", "comercioRazonSocial": "INC S.A.", "comercioId": 10, "sucursalId": "58"}, "139": {"banderaId": 2, "lat": "-37.845283", "lng": "-58.255909", "sucursalNombre": "FRS.Balcarce2", "id": "36-2-204", "sucursalTipo": "Autoservicio", "provincia": "AR-B", "direccion": "Chaves 521", "banderaDescripcion": "SuperCLC", "localidad": "Balcarce", "comercioRazonSocial": "SUPERCLC S.A.", "comercioId": 36, "sucursalId": "204"}, "140": {"banderaId": 1, "lat": "-37.8407516", "lng": "-58.2562523", "sucursalNombre": "278 - Balcarce", "id": "15-1-278", "sucursalTipo": "Autoservicio", "provincia": "AR-B", "direccion": "Cl Boulevar Del Valle 512", "banderaDescripcion": "Supermercados DIA", "localidad": "Balcarce", "comercioRazonSocial": "DIA Argentina S.A", "comercioId": 15, "sucursalId": "278"}, "141": {"banderaId": 6, "lat": "-37.848374", "lng": "-58.258151", "sucursalNombre": "Agapantus.Balcarce", "id": "36-6-40", "sucursalTipo": "Autoservicio", "provincia": "AR-B", "direccion": "Kelly 734", "banderaDescripcion": "SuperCLC", "localidad": "Balcarce", "comercioRazonSocial": "SUPERCLC S.A.", "comercioId": 36, "sucursalId": "40"}, "142": {"banderaId": 1, "lat": "-34.7494248", "lng": "-58.4002232", "sucursalNombre": " BANFIELD ", "id": "12-1-183", "sucursalTipo": "Supermercado", "provincia": "AR-B", "direccion": "Av. Hipolito Yrigoyen 8028", "banderaDescripcion": "COTO CICSA", "localidad": "Banfield", "comercioRazonSocial": "Coto Centro Integral de Comercializaci\u00f3n S.A.", "comercioId": 12, "sucursalId": "183"}, "143": {"banderaId": 1, "lat": "-34.748565", "lng": "-58.370853", "sucursalNombre": "JOSIMAR", "id": "29-1-4", "sucursalTipo": "Supermercado", "provincia": "AR-B", "direccion": "Belisario Roldan 365", "banderaDescripcion": "JOSIMAR SUPERMERCADOS", "localidad": "Banfield", "comercioRazonSocial": "Josimar S.A.", "comercioId": 29, "sucursalId": "4"}, "144": {"banderaId": 3, "lat": "-34.735217", "lng": "-58.433859", "sucursalNombre": "Martin Rodr\u00edguez 1399", "id": "10-3-453", "sucursalTipo": "Supermercado", "provincia": "AR-B", "direccion": "Mart\u00edn Rodr\u00edguez 1399", "banderaDescripcion": "Express", "localidad": "Banfield", "comercioRazonSocial": "INC S.A.", "comercioId": 10, "sucursalId": "453"}, "145": {"banderaId": 1, "lat": "-34.743554", "lng": "-58.391069", "sucursalNombre": "Banfield [Maipu 339/337]", "id": "24-1-257", "sucursalTipo": "Supermercado", "provincia": "AR-B", "direccion": "Maipu 339", "banderaDescripcion": "Simplicity", "localidad": "BANFIELD", "comercioRazonSocial": "Farmacity S.A.", "comercioId": 24, "sucursalId": "257"}, "146": {"banderaId": 2, "lat": "-34.7390", "lng": "-58.4084", "sucursalNombre": "Banfield.", "id": "9-2-112", "sucursalTipo": "Supermercado", "provincia": "AR-B", "direccion": "Vieytes Juan Hipolito 1046", "banderaDescripcion": "Disco", "localidad": "BANFIELD", "comercioRazonSocial": "Jumbo Retail Argentina S.A.", "comercioId": 9, "sucursalId": "112"}, "147": {"banderaId": 5, "lat": "-34.733394", "lng": "-58.293619", "sucursalNombre": "Quilmes", "id": "11-5-1018", "sucursalTipo": "Hipermercado", "provincia": "AR-B", "direccion": "Av Calchaqui 700", "banderaDescripcion": "Walmart SuperCenter", "localidad": "BARRIO EL DORADO", "comercioRazonSocial": "Wal Mart Argentina S.R.L.", "comercioId": 11, "sucursalId": "1018"}, "148": {"banderaId": 1, "lat": "-38.00951510236065", "lng": "-57.71004366892157", "sucursalNombre": "Bat\u00e1n", "id": "13-1-115", "sucursalTipo": "Autoservicio", "provincia": "AR-B", "direccion": "Juan Domingo Peron 100", "banderaDescripcion": "Cooperativa Obrera Limitada de Consumo y Vivienda", "localidad": "Bat\u00e1n", "comercioRazonSocial": "Cooperativa Obrera Limitada de Consumo y Vivienda", "comercioId": 13, "sucursalId": "115"}, "149": {"banderaId": 3, "lat": "-34.461333", "lng": "-58.527173", "sucursalNombre": "Centenario 1890", "id": "10-3-437", "sucursalTipo": "Supermercado", "provincia": "AR-B", "direccion": "Centenario 1890", "banderaDescripcion": "Express", "localidad": "Beccar", "comercioRazonSocial": "INC S.A.", "comercioId": 10, "sucursalId": "437"}, "150": {"banderaId": 1, "lat": "-34.5652775", "lng": "-58.6842989", "sucursalNombre": "134 - Bella Vista", "id": "15-1-134", "sucursalTipo": "Autoservicio", "provincia": "AR-B", "direccion": "Cl Senador Moron 1480", "banderaDescripcion": "Supermercados DIA", "localidad": "Bella Vista", "comercioRazonSocial": "DIA Argentina S.A", "comercioId": 15, "sucursalId": "134"}, "151": {"banderaId": 1, "lat": "-34.5715475", "lng": "-58.6833252", "sucursalNombre": "BELLA VISTA ", "id": "12-1-123", "sucursalTipo": "Supermercado", "provincia": "AR-B", "direccion": "O Higgins 1263", "banderaDescripcion": "COTO CICSA", "localidad": "Bella Vista", "comercioRazonSocial": "Coto Centro Integral de Comercializaci\u00f3n S.A.", "comercioId": 12, "sucursalId": "123"}, "152": {"banderaId": 1, "lat": "-34.57328", "lng": "-58.69228", "sucursalNombre": "BELLA VISTA", "id": "19-1-01414", "sucursalTipo": "Autoservicio", "provincia": "AR-B", "direccion": "Avenida Gaspar Campos 981/ 987 981", "banderaDescripcion": "FULL", "localidad": "BELLA VISTA", "comercioRazonSocial": "Operadora de Estaciones de Servicios S.A.", "comercioId": 19, "sucursalId": "01414"}, "153": {"banderaId": 2, "lat": "-34.5608", "lng": "-58.6785", "sucursalNombre": "Bella Vista.", "id": "9-2-163", "sucursalTipo": "Supermercado", "provincia": "AR-B", "direccion": "Avenida Moron Senador 980", "banderaDescripcion": "Disco", "localidad": "BELLA VISTA", "comercioRazonSocial": "Jumbo Retail Argentina S.A.", "comercioId": 9, "sucursalId": "163"}, "154": {"banderaId": 1, "lat": "-34.4103806", "lng": "-58.6863928", "sucursalNombre": "149 - Benavidez", "id": "15-1-149", "sucursalTipo": "Autoservicio", "provincia": "AR-B", "direccion": "Av Alvear 2939", "banderaDescripcion": "Supermercados DIA", "localidad": "Benavidez", "comercioRazonSocial": "DIA Argentina S.A", "comercioId": 15, "sucursalId": "149"}, "155": {"banderaId": 1, "lat": "-37.671562", "lng": "-59.807378", "sucursalNombre": "289 - Benito Juarez", "id": "15-1-289", "sucursalTipo": "Autoservicio", "provincia": "AR-B", "direccion": "Av Libertad 150", "banderaDescripcion": "Supermercados DIA", "localidad": "Benito Juarez", "comercioRazonSocial": "DIA Argentina S.A", "comercioId": 15, "sucursalId": "289"}, "156": {"banderaId": 4, "lat": "-37.676431", "lng": "-59.810623", "sucursalNombre": "SuperCentral.Juarez", "id": "36-4-56", "sucursalTipo": "Autoservicio", "provincia": "AR-B", "direccion": "San Mart\u00edn 161", "banderaDescripcion": "SuperCLC", "localidad": "Benito Juarez", "comercioRazonSocial": "SUPERCLC S.A.", "comercioId": 36, "sucursalId": "56"}, "157": {"banderaId": 1, "lat": "-37.67561636653722", "lng": "-59.805969035720864", "sucursalNombre": "Benito Ju\u00e1rez", "id": "13-1-40", "sucursalTipo": "Supermercado", "provincia": "AR-B", "direccion": "Av. Mitre 87", "banderaDescripcion": "Cooperativa Obrera Limitada de Consumo y Vivienda", "localidad": "Benito Ju\u00e1rez", "comercioRazonSocial": "Cooperativa Obrera Limitada de Consumo y Vivienda", "comercioId": 13, "sucursalId": "40"}, "158": {"banderaId": 3, "lat": "-34.760264", "lng": "-58.206631", "sucursalNombre": "Av. 14 N 5072", "id": "10-3-495", "sucursalTipo": "Autoservicio", "provincia": "AR-B", "direccion": "Av. 14 N 5072", "banderaDescripcion": "Express", "localidad": "Berazategui", "comercioRazonSocial": "INC S.A.", "comercioId": 10, "sucursalId": "495"}, "159": {"banderaId": 1, "lat": "-34.7652851", "lng": "-58.1979191", "sucursalNombre": "123 - Berazategui", "id": "15-1-123", "sucursalTipo": "Autoservicio", "provincia": "AR-B", "direccion": "Av Mitre 2101", "banderaDescripcion": "Supermercados DIA", "localidad": "Berazategui", "comercioRazonSocial": "DIA Argentina S.A", "comercioId": 15, "sucursalId": "123"}, "160": {"banderaId": 1, "lat": "-34.7672566", "lng": "-58.2195186", "sucursalNombre": "1023 - Berazategui", "id": "15-1-1023", "sucursalTipo": "Supermercado", "provincia": "AR-B", "direccion": "Cl Calle N\u00e2\u00b014 3880", "banderaDescripcion": "Supermercados DIA", "localidad": "Berazategui", "comercioRazonSocial": "DIA Argentina S.A", "comercioId": 15, "sucursalId": "1023"}, "161": {"banderaId": 1, "lat": "-34.8097369", "lng": "-58.1872598", "sucursalNombre": "73 - Berazategui", "id": "15-1-73", "sucursalTipo": "Autoservicio", "provincia": "AR-B", "direccion": "Cl Heroes De Malvina 2839", "banderaDescripcion": "Supermercados DIA", "localidad": "Berazategui", "comercioRazonSocial": "DIA Argentina S.A", "comercioId": 15, "sucursalId": "73"}, "162": {"banderaId": 1, "lat": "-34.7738", "lng": "-58.2696", "sucursalNombre": "Gutierrez", "id": "23-1-6277", "sucursalTipo": "Autoservicio", "provincia": "AR-B", "direccion": "Ruta 36 Km. 34 None", "banderaDescripcion": "Axion Energy", "localidad": "Berazategui", "comercioRazonSocial": "Pan American Energy LLC Argentina", "comercioId": 23, "sucursalId": "6277"}, "163": {"banderaId": 1, "lat": "-34.811905", "lng": "-58.104034", "sucursalNombre": "AUT BSAS-LA PLATA - A LA PLATA", "id": "3-1-1735", "sucursalTipo": "Autoservicio", "provincia": "AR-B", "direccion": "Progresiva - Autop. Bs.As/La Plata - (A  La Plata) 17400", "banderaDescripcion": "DEHEZA S.A.I.C.F. e I.", "localidad": "BERAZATEGUI", "comercioRazonSocial": "Deheza S.A.I.C.F. e I.", "comercioId": 3, "sucursalId": "1735"}, "164": {"banderaId": 1, "lat": "-34.8702073", "lng": "-57.8808734", "sucursalNombre": "41 - Berisso", "id": "15-1-41", "sucursalTipo": "Autoservicio", "provincia": "AR-B", "direccion": "Cl Montevideo 1020", "banderaDescripcion": "Supermercados DIA", "localidad": "Berisso", "comercioRazonSocial": "DIA Argentina S.A", "comercioId": 15, "sucursalId": "41"}, "165": {"banderaId": 1, "lat": "-34.8742082", "lng": "-57.8678337", "sucursalNombre": "43 - Berisso", "id": "15-1-43", "sucursalTipo": "Autoservicio", "provincia": "AR-B", "direccion": "Cl Montevideo 2181", "banderaDescripcion": "Supermercados DIA", "localidad": "Berisso", "comercioRazonSocial": "DIA Argentina S.A", "comercioId": 15, "sucursalId": "43"}, "166": {"banderaId": 1, "lat": "-34.87522", "lng": "-57.89605", "sucursalNombre": "BERISSO PUENTE ROMA", "id": "19-1-00523", "sucursalTipo": "Autoservicio", "provincia": "AR-B", "direccion": "Calle 2 Y Calle 158 0", "banderaDescripcion": "FULL", "localidad": "BERISSO", "comercioRazonSocial": "Operadora de Estaciones de Servicios S.A.", "comercioId": 19, "sucursalId": "00523"}, "167": {"banderaId": 1, "lat": "-34.90692", "lng": "-57.92712", "sucursalNombre": "BERISSO", "id": "19-1-00525", "sucursalTipo": "Autoservicio", "provincia": "AR-B", "direccion": "Calle 60 Y Calle 122 0", "banderaDescripcion": "FULL", "localidad": "BERISSO", "comercioRazonSocial": "Operadora de Estaciones de Servicios S.A.", "comercioId": 19, "sucursalId": "00525"}, "168": {"banderaId": 1, "lat": "-34.715471", "lng": "-58.298863", "sucursalNombre": "Bernal", "id": "10-1-227", "sucursalTipo": "Hipermercado", "provincia": "AR-B", "direccion": "Av. Dardo Rocha 849", "banderaDescripcion": "Hipermercado Carrefour", "localidad": "Bernal", "comercioRazonSocial": "INC S.A.", "comercioId": 10, "sucursalId": "227"}, "169": {"banderaId": 1, "lat": "-34.719142", "lng": "-58.2913273", "sucursalNombre": "BERNAL ", "id": "12-1-130", "sucursalTipo": "Supermercado", "provincia": "AR-B", "direccion": "Av. Dardo Rocha 251", "banderaDescripcion": "COTO CICSA", "localidad": "Bernal", "comercioRazonSocial": "Coto Centro Integral de Comercializaci\u00f3n S.A.", "comercioId": 12, "sucursalId": "130"}, "170": {"banderaId": 1, "lat": "-34.7160304", "lng": "-58.2733722", "sucursalNombre": "143 - Bernal", "id": "15-1-143", "sucursalTipo": "Autoservicio", "provincia": "AR-B", "direccion": "Av Lamadrid 0", "banderaDescripcion": "Supermercados DIA", "localidad": "Bernal", "comercioRazonSocial": "DIA Argentina S.A", "comercioId": 15, "sucursalId": "143"}, "171": {"banderaId": 1, "lat": "-34.7116294", "lng": "-58.2820677", "sucursalNombre": "25 - Bernal", "id": "15-1-25", "sucursalTipo": "Autoservicio", "provincia": "AR-B", "direccion": "Cl Belgrano 388", "banderaDescripcion": "Supermercados DIA", "localidad": "Bernal", "comercioRazonSocial": "DIA Argentina S.A", "comercioId": 15, "sucursalId": "25"}, "172": {"banderaId": 1, "lat": "-34.71228", "lng": "-58.27498", "sucursalNombre": "ACA BERNAL", "id": "19-1-03232", "sucursalTipo": "Autoservicio", "provincia": "AR-B", "direccion": "Avenida Zapiola Y San Martin 26", "banderaDescripcion": "FULL", "localidad": "BERNAL", "comercioRazonSocial": "Operadora de Estaciones de Servicios S.A.", "comercioId": 19, "sucursalId": "03232"}, "173": {"banderaId": 4, "lat": "-36.233349", "lng": "-61.106242", "sucursalNombre": "SuperCentral.Bolivar2", "id": "36-4-57", "sucursalTipo": "Autoservicio", "provincia": "AR-B", "direccion": "25 De Mayo 333", "banderaDescripcion": "SuperCLC", "localidad": "Bolivar", "comercioRazonSocial": "SUPERCLC S.A.", "comercioId": 36, "sucursalId": "57"}, "174": {"banderaId": 1, "lat": "-36.231056", "lng": "-61.113086", "sucursalNombre": "1536 - Bolivar", "id": "15-1-1536", "sucursalTipo": "Supermercado", "provincia": "AR-B", "direccion": "Av Alsina 651", "banderaDescripcion": "Supermercados DIA", "localidad": "Bolivar", "comercioRazonSocial": "DIA Argentina S.A", "comercioId": 15, "sucursalId": "1536"}, "175": {"banderaId": 1, "lat": "-36.23153688864939", "lng": "-61.11475968369632", "sucursalNombre": "Bolivar", "id": "13-1-91", "sucursalTipo": "Supermercado", "provincia": "AR-B", "direccion": "General Paz 98", "banderaDescripcion": "Cooperativa Obrera Limitada de Consumo y Vivienda", "localidad": "Bolivar", "comercioRazonSocial": "Cooperativa Obrera Limitada de Consumo y Vivienda", "comercioId": 13, "sucursalId": "91"}, "176": {"banderaId": 3, "lat": "-36.228354", "lng": "-61.117348", "sucursalNombre": "SuperCLC.Bolivar1", "id": "36-3-29", "sucursalTipo": "Autoservicio", "provincia": "AR-B", "direccion": "Olascoaga 90", "banderaDescripcion": "SuperCLC", "localidad": "Bolivar", "comercioRazonSocial": "SUPERCLC S.A.", "comercioId": 36, "sucursalId": "29"}, "177": {"banderaId": 1, "lat": "-34.5098719", "lng": "-58.5775618", "sucursalNombre": "158 - Boulogne", "id": "15-1-158", "sucursalTipo": "Autoservicio", "provincia": "AR-B", "direccion": "Cl Sarratea 0", "banderaDescripcion": "Supermercados DIA", "localidad": "Boulogne", "comercioRazonSocial": "DIA Argentina S.A", "comercioId": 15, "sucursalId": "158"}, "178": {"banderaId": 1, "lat": "-35.1172245", "lng": "-60.4858734", "sucursalNombre": "213 - Bragado", "id": "15-1-213", "sucursalTipo": "Autoservicio", "provincia": "AR-B", "direccion": "Cl Pelegrini 1601", "banderaDescripcion": "Supermercados DIA", "localidad": "Bragado", "comercioRazonSocial": "DIA Argentina S.A", "comercioId": 15, "sucursalId": "213"}, "179": {"banderaId": 1, "lat": "-35.119830", "lng": "-60.480450", "sucursalNombre": "BRAGADO", "id": "2-1-058", "sucursalTipo": "Supermercado", "provincia": "AR-B", "direccion": "Rivadavia 2070", "banderaDescripcion": "La Anonima", "localidad": "Bragado", "comercioRazonSocial": "S.A. Importadora y Exportadora de la Patagonia", "comercioId": 2, "sucursalId": "058"}, "180": {"banderaId": 5, "lat": "-35.122425", "lng": "-60.486289", "sucursalNombre": "Caluc.Bragado", "id": "36-5-71", "sucursalTipo": "Autoservicio", "provincia": "AR-B", "direccion": "San Mart\u00edn 1879", "banderaDescripcion": "SuperCLC", "localidad": "Bragado", "comercioRazonSocial": "SUPERCLC S.A.", "comercioId": 36, "sucursalId": "71"}, "181": {"banderaId": 3, "lat": "-34.720449", "lng": "-58.462849", "sucursalNombre": "Claudio de Alas 2146", "id": "10-3-458", "sucursalTipo": "Autoservicio", "provincia": "AR-B", "direccion": "Claudio De Alas 2146", "banderaDescripcion": "Express", "localidad": "Budge", "comercioRazonSocial": "INC S.A.", "comercioId": 10, "sucursalId": "458"}, "182": {"banderaId": 3, "lat": "-34.828180", "lng": "-58.390159", "sucursalNombre": "Carlos Pellegrini 844", "id": "10-3-448", "sucursalTipo": "Autoservicio", "provincia": "AR-B", "direccion": "Carlos Pellegrini 844", "banderaDescripcion": "Express", "localidad": "Burzaco", "comercioRazonSocial": "INC S.A.", "comercioId": 10, "sucursalId": "448"}, "183": {"banderaId": 1, "lat": "-34.826231", "lng": "-58.393707", "sucursalNombre": "118 - Burzaco", "id": "15-1-118", "sucursalTipo": "Autoservicio", "provincia": "AR-B", "direccion": "Cl E.Burzaco 682", "banderaDescripcion": "Supermercados DIA", "localidad": "Burzaco", "comercioRazonSocial": "DIA Argentina S.A", "comercioId": 15, "sucursalId": "118"}, "184": {"banderaId": 1, "lat": "-35.050929", "lng": "-58.7648874", "sucursalNombre": "342 - Ca\u00c3\u00b1uelas", "id": "15-1-342", "sucursalTipo": "Autoservicio", "provincia": "AR-B", "direccion": "Av Libertad 1256", "banderaDescripcion": "Supermercados DIA", "localidad": "Ca\u00c3\u00b1uelas", "comercioRazonSocial": "DIA Argentina S.A", "comercioId": 15, "sucursalId": "342"}, "185": {"banderaId": 1, "lat": "-35.0530892", "lng": "-58.7606411", "sucursalNombre": "39 - Ca\u00c3\u00b1uelas", "id": "15-1-39", "sucursalTipo": "Autoservicio", "provincia": "AR-B", "direccion": "Cl Rivadavia 800", "banderaDescripcion": "Supermercados DIA", "localidad": "Ca\u00c3\u00b1uelas", "comercioRazonSocial": "DIA Argentina S.A", "comercioId": 15, "sucursalId": "39"}, "186": {"banderaId": 1, "lat": "-38.484317162798675", "lng": "-61.892693142127996", "sucursalNombre": "Cabildo", "id": "13-1-7", "sucursalTipo": "Supermercado", "provincia": "AR-B", "direccion": "Vieytes Y Azcu\u00e9naga 0", "banderaDescripcion": "Cooperativa Obrera Limitada de Consumo y Vivienda", "localidad": "Cabildo", "comercioRazonSocial": "Cooperativa Obrera Limitada de Consumo y Vivienda", "comercioId": 13, "sucursalId": "7"}, "187": {"banderaId": 2, "lat": "-34.162738", "lng": "-58.965513", "sucursalNombre": "Campana Centro", "id": "10-2-208", "sucursalTipo": "Supermercado", "provincia": "AR-B", "direccion": "Av. Mitre 1085", "banderaDescripcion": "Market", "localidad": "Campana", "comercioRazonSocial": "INC S.A.", "comercioId": 10, "sucursalId": "208"}, "188": {"banderaId": 1, "lat": "-34.1629", "lng": "-58.9648", "sucursalNombre": "Dialogos", "id": "23-1-6201", "sucursalTipo": "Autoservicio", "provincia": "AR-B", "direccion": "Av. Mitre 852", "banderaDescripcion": "Axion Energy", "localidad": "Campana", "comercioRazonSocial": "Pan American Energy LLC Argentina", "comercioId": 23, "sucursalId": "6201"}, "189": {"banderaId": 1, "lat": "-34.1793", "lng": "-58.9629", "sucursalNombre": "Rivadavia", "id": "23-1-6209", "sucursalTipo": "Autoservicio", "provincia": "AR-B", "direccion": "Av. Rivadavia 975", "banderaDescripcion": "Axion Energy", "localidad": "Campana", "comercioRazonSocial": "Pan American Energy LLC Argentina", "comercioId": 23, "sucursalId": "6209"}, "190": {"banderaId": 1, "lat": "-34.1641136", "lng": "-58.9579757", "sucursalNombre": "233 - Campana", "id": "15-1-233", "sucursalTipo": "Autoservicio", "provincia": "AR-B", "direccion": "Cl Belgrano 390", "banderaDescripcion": "Supermercados DIA", "localidad": "Campana", "comercioRazonSocial": "DIA Argentina S.A", "comercioId": 15, "sucursalId": "233"}, "191": {"banderaId": 1, "lat": "-34.186540", "lng": "-58.945418", "sucursalNombre": "Campana II", "id": "10-1-232", "sucursalTipo": "Hipermercado", "provincia": "AR-B", "direccion": "Colectora Norte 1647", "banderaDescripcion": "Hipermercado Carrefour", "localidad": "Campana", "comercioRazonSocial": "INC S.A.", "comercioId": 10, "sucursalId": "232"}, "192": {"banderaId": 1, "lat": "-34.1659506", "lng": "-58.9611328", "sucursalNombre": "CAMPANA ", "id": "12-1-117", "sucursalTipo": "Supermercado", "provincia": "AR-B", "direccion": "Juan M. Estrada 878", "banderaDescripcion": "COTO CICSA", "localidad": "Campana", "comercioRazonSocial": "Coto Centro Integral de Comercializaci\u00f3n S.A.", "comercioId": 12, "sucursalId": "117"}, "193": {"banderaId": 1, "lat": "-34.1962", "lng": "-58.9552", "sucursalNombre": "La Carmela", "id": "23-1-6203", "sucursalTipo": "Autoservicio", "provincia": "AR-B", "direccion": "Ruta 9 Esq. Cnel Larrabure None", "banderaDescripcion": "Axion Energy", "localidad": "Campana", "comercioRazonSocial": "Pan American Energy LLC Argentina", "comercioId": 23, "sucursalId": "6203"}, "194": {"banderaId": 1, "lat": "-34.160831", "lng": "-58.958885", "sucursalNombre": "Campana [Av. Ingeniero A. Rocca 222", "id": "24-1-261", "sucursalTipo": "Supermercado", "provincia": "AR-B", "direccion": "Av. Ingeniero A. Rocca 222", "banderaDescripcion": "Simplicity", "localidad": "CAMPANA", "comercioRazonSocial": "Farmacity S.A.", "comercioId": 24, "sucursalId": "261"}, "195": {"banderaId": 1, "lat": "-34.19848", "lng": "-58.93808", "sucursalNombre": "AUSOL KM 72 ASCENDENTE", "id": "19-1-03253", "sucursalTipo": "Autoservicio", "provincia": "AR-B", "direccion": "Col Norte Ruta Nac 9 Km 72 Asc 0", "banderaDescripcion": "FULL", "localidad": "CAMPANA", "comercioRazonSocial": "Operadora de Estaciones de Servicios S.A.", "comercioId": 19, "sucursalId": "03253"}, "196": {"banderaId": 1, "lat": "-34.19923", "lng": "-58.93825", "sucursalNombre": "AUSOL KM.72 DESCENDENTE", "id": "19-1-03254", "sucursalTipo": "Autoservicio", "provincia": "AR-B", "direccion": "Col Sur Ruta 9 Km 72 Desc 0", "banderaDescripcion": "FULL", "localidad": "CAMPANA", "comercioRazonSocial": "Operadora de Estaciones de Servicios S.A.", "comercioId": 19, "sucursalId": "03254"}, "197": {"banderaId": 2, "lat": "-34.8546", "lng": "-58.5047", "sucursalNombre": "Canning", "id": "9-2-740", "sucursalTipo": "Supermercado", "provincia": "AR-B", "direccion": "Av. Pedro Dreyer Y Ruta 52 0", "banderaDescripcion": "Disco", "localidad": "CANNING", "comercioRazonSocial": "Jumbo Retail Argentina S.A.", "comercioId": 9, "sucursalId": "740"}, "198": {"banderaId": 1, "lat": "-35.04167", "lng": "-58.76205", "sucursalNombre": "CANUELAS", "id": "19-1-00590", "sucursalTipo": "Autoservicio", "provincia": "AR-B", "direccion": "Ruta 205 Km 65.750(Ascendente) 0", "banderaDescripcion": "FULL", "localidad": "CANUELAS", "comercioRazonSocial": "Operadora de Estaciones de Servicios S.A.", "comercioId": 19, "sucursalId": "00590"}, "199": {"banderaId": 1, "lat": "-35.0502", "lng": "-58.7561", "sucursalNombre": "Ca\u00f1uelas.", "id": "9-1-703", "sucursalTipo": "Supermercado", "provincia": "AR-B", "direccion": "Azcuenaga 738", "banderaDescripcion": "Vea", "localidad": "CA\u00d1UELAS", "comercioRazonSocial": "Jumbo Retail Argentina S.A.", "comercioId": 9, "sucursalId": "703"}, "200": {"banderaId": 1, "lat": "-34.599934", "lng": "-58.438878", "sucursalNombre": "Scalabrini [Av. Scalabrini Ortiz n\u00ba 293/295]", "id": "24-1-241", "sucursalTipo": "Supermercado", "provincia": "AR-B", "direccion": "Av. Scalabrini Ortiz 293", "banderaDescripcion": "Simplicity", "localidad": "Capital Federal", "comercioRazonSocial": "Farmacity S.A.", "comercioId": 24, "sucursalId": "241"}, "201": {"banderaId": 1, "lat": "-34.58687", "lng": "-58.37247", "sucursalNombre": "RETIRO TERMINAL", "id": "19-1-03159", "sucursalTipo": "Autoservicio", "provincia": "AR-B", "direccion": "Av. Ant\u00e6rtida Argentina 0", "banderaDescripcion": "FULL", "localidad": "CAPITAL FEDERAL", "comercioRazonSocial": "Operadora de Estaciones de Servicios S.A.", "comercioId": 19, "sucursalId": "03159"}, "202": {"banderaId": 1, "lat": "-34.173214", "lng": "-59.795796", "sucursalNombre": "222 - Capitan Sarmiento", "id": "15-1-222", "sucursalTipo": "Autoservicio", "provincia": "AR-B", "direccion": "Cl Rivadavia 536", "banderaDescripcion": "Supermercados DIA", "localidad": "Capitan Sarmiento", "comercioRazonSocial": "DIA Argentina S.A", "comercioId": 15, "sucursalId": "222"}, "203": {"banderaId": 1, "lat": "-34.1670624", "lng": "-59.7919301", "sucursalNombre": "MUCOOP CAP.SARMIENTO", "id": "35-1-1", "sucursalTipo": "Autoservicio", "provincia": "AR-B", "direccion": "Espa\u00f1a Y B.Mitre 500", "banderaDescripcion": "MUCOOP CAP.SARMIENTO", "localidad": "Capit\u00e1n Sarmiento", "comercioRazonSocial": "Asociaci\u00f3n Mutual Socios y Adherentes de la Cooperativa Agr\u00edcola de Capit\u00e1n Sarmiento", "comercioId": 35, "sucursalId": "1"}, "204": {"banderaId": 2, "lat": "-34.527628", "lng": "-58.535824", "sucursalNombre": "Carapachay", "id": "10-2-201", "sucursalTipo": "Supermercado", "provincia": "AR-B", "direccion": "Independencia 3067", "banderaDescripcion": "Market", "localidad": "Carapachay", "comercioRazonSocial": "INC S.A.", "comercioId": 10, "sucursalId": "201"}, "205": {"banderaId": 1, "lat": "-35.625004", "lng": "-61.365063", "sucursalNombre": "230 - Carlos Casares", "id": "15-1-230", "sucursalTipo": "Autoservicio", "provincia": "AR-B", "direccion": "Cl San Martin 0", "banderaDescripcion": "Supermercados DIA", "localidad": "Carlos Casares", "comercioRazonSocial": "DIA Argentina S.A", "comercioId": 15, "sucursalId": "230"}, "206": {"banderaId": 1, "lat": "-35.624580", "lng": "-61.366430", "sucursalNombre": "CARLOS CASARES", "id": "2-1-118", "sucursalTipo": "Supermercado", "provincia": "AR-B", "direccion": "Vicente Lopez 40", "banderaDescripcion": "La Anonima", "localidad": "Carlos Casares", "comercioRazonSocial": "S.A. Importadora y Exportadora de la Patagonia", "comercioId": 2, "sucursalId": "118"}, "207": {"banderaId": 1, "lat": "-34.3806686", "lng": "-59.8223267", "sucursalNombre": "313 - Carmen De Areco", "id": "15-1-313", "sucursalTipo": "Autoservicio", "provincia": "AR-B", "direccion": "Av Mitre Y Dowling 557", "banderaDescripcion": "Supermercados DIA", "localidad": "Carmen De Areco", "comercioRazonSocial": "DIA Argentina S.A", "comercioId": 15, "sucursalId": "313"}, "208": {"banderaId": 1, "lat": "-40.799190", "lng": "-62.978050", "sucursalNombre": "C. DE PATAGONES", "id": "2-1-069", "sucursalTipo": "Supermercado", "provincia": "AR-B", "direccion": "San Lorenzo 59", "banderaDescripcion": "La Anonima", "localidad": "Carmen de Patagones", "comercioRazonSocial": "S.A. Importadora y Exportadora de la Patagonia", "comercioId": 2, "sucursalId": "069"}, "209": {"banderaId": 1, "lat": "-38.82570119461561", "lng": "-68.15059715512689", "sucursalNombre": "Casbas", "id": "13-1-73", "sucursalTipo": "Autoservicio", "provincia": "AR-B", "direccion": "Avcaride Y Sarmiento 0", "banderaDescripcion": "Cooperativa Obrera Limitada de Consumo y Vivienda", "localidad": "Casbas", "comercioRazonSocial": "Cooperativa Obrera Limitada de Consumo y Vivienda", "comercioId": 13, "sucursalId": "73"}, "210": {"banderaId": 1, "lat": "-34.6131258", "lng": "-58.5624903", "sucursalNombre": "148 - Caseros", "id": "15-1-148", "sucursalTipo": "Autoservicio", "provincia": "AR-B", "direccion": "Av Libertador S. Martin 3360", "banderaDescripcion": "Supermercados DIA", "localidad": "Caseros", "comercioRazonSocial": "DIA Argentina S.A", "comercioId": 15, "sucursalId": "148"}, "211": {"banderaId": 1, "lat": "-34.601775", "lng": "-58.5618167", "sucursalNombre": "10 - Caseros", "id": "15-1-10", "sucursalTipo": "Autoservicio", "provincia": "AR-B", "direccion": "Cl San Martin 2146", "banderaDescripcion": "Supermercados DIA", "localidad": "Caseros", "comercioRazonSocial": "DIA Argentina S.A", "comercioId": 15, "sucursalId": "10"}, "212": {"banderaId": 1, "lat": "-34.6106", "lng": "-58.5608", "sucursalNombre": "Caseros.", "id": "9-1-234", "sucursalTipo": "Supermercado", "provincia": "AR-B", "direccion": "Avenida Mitre Bartolome 4650", "banderaDescripcion": "Vea", "localidad": "CASEROS", "comercioRazonSocial": "Jumbo Retail Argentina S.A.", "comercioId": 9, "sucursalId": "234"}, "213": {"banderaId": 2, "lat": "-34.575111", "lng": "-58.611389", "sucursalNombre": "Tres de Febrero", "id": "11-2-1035", "sucursalTipo": "Hipermercado", "provincia": "AR-B", "direccion": "Av Pte Peron 9150", "banderaDescripcion": "Changomas", "localidad": "CASEROS", "comercioRazonSocial": "Wal Mart Argentina S.R.L.", "comercioId": 11, "sucursalId": "1035"}, "214": {"banderaId": 1, "lat": "-34.605697", "lng": "-58.562677", "sucursalNombre": "Caseros [Av Urquiza 4734]", "id": "24-1-252", "sucursalTipo": "Supermercado", "provincia": "AR-B", "direccion": "Av Urquiza 4734", "banderaDescripcion": "Simplicity", "localidad": "CASEROS ,PARTIDO 3 DE FEBRERO", "comercioRazonSocial": "Farmacity S.A.", "comercioId": 24, "sucursalId": "252"}, "215": {"banderaId": 1, "lat": "-34.6498757", "lng": "-58.6504339", "sucursalNombre": "1026 - Castelar", "id": "15-1-1026", "sucursalTipo": "Supermercado", "provincia": "AR-B", "direccion": "Av Gdor. Inocencio Arias 2983", "banderaDescripcion": "Supermercados DIA", "localidad": "Castelar", "comercioRazonSocial": "DIA Argentina S.A", "comercioId": 15, "sucursalId": "1026"}, "216": {"banderaId": 3, "lat": "-34.651086", "lng": "-58.642884", "sucursalNombre": "Gob. Arias 2420", "id": "10-3-439", "sucursalTipo": "Supermercado", "provincia": "AR-B", "direccion": "Gob. Arias 2420", "banderaDescripcion": "Express", "localidad": "Castelar", "comercioRazonSocial": "INC S.A.", "comercioId": 10, "sucursalId": "439"}, "217": {"banderaId": 1, "lat": "-34.640349", "lng": "-58.655782", "sucursalNombre": "CASTELAR ", "id": "12-1-199", "sucursalTipo": "Hipermercado", "provincia": "AR-B", "direccion": "Santa Rosa 1753", "banderaDescripcion": "COTO CICSA", "localidad": "Castelar", "comercioRazonSocial": "Coto Centro Integral de Comercializaci\u00f3n S.A.", "comercioId": 12, "sucursalId": "199"}, "218": {"banderaId": 2, "lat": "-34.6491", "lng": "-58.6561", "sucursalNombre": "Castelar Norte.", "id": "9-2-156", "sucursalTipo": "Supermercado", "provincia": "AR-B", "direccion": "Arias Gobernador Inocendio 3247", "banderaDescripcion": "Disco", "localidad": "CASTELAR", "comercioRazonSocial": "Jumbo Retail Argentina S.A.", "comercioId": 9, "sucursalId": "156"}, "219": {"banderaId": 1, "lat": "-34.6561", "lng": "-58.6519", "sucursalNombre": "Castelar Sur.", "id": "9-1-155", "sucursalTipo": "Supermercado", "provincia": "AR-B", "direccion": "Avenida Zeballos Dr. Estanislao 3154", "banderaDescripcion": "Vea", "localidad": "CASTELAR", "comercioRazonSocial": "Jumbo Retail Argentina S.A.", "comercioId": 9, "sucursalId": "155"}, "220": {"banderaId": 3, "lat": "-34.6338", "lng": "-58.6285", "sucursalNombre": "Jumbo Mor\u00f3n", "id": "9-3-5208", "sucursalTipo": "Hipermercado", "provincia": "AR-B", "direccion": "Boulevard Rosas Juan Manuel De 658", "banderaDescripcion": "Jumbo", "localidad": "CASTELAR", "comercioRazonSocial": "Jumbo Retail Argentina S.A.", "comercioId": 9, "sucursalId": "5208"}, "221": {"banderaId": 1, "lat": "-34.6346734", "lng": "-60.4642224", "sucursalNombre": "281 - Chacabuco", "id": "15-1-281", "sucursalTipo": "Autoservicio", "provincia": "AR-B", "direccion": "Av Hipolito Yrigoyen 51", "banderaDescripcion": "Supermercados DIA", "localidad": "Chacabuco", "comercioRazonSocial": "DIA Argentina S.A", "comercioId": 15, "sucursalId": "281"}, "222": {"banderaId": 1, "lat": "-34.643660", "lng": "-60.470900", "sucursalNombre": "CHACABUCO", "id": "2-1-055", "sucursalTipo": "Supermercado", "provincia": "AR-B", "direccion": "Sarmiento 36", "banderaDescripcion": "La Anonima", "localidad": "Chacabuco", "comercioRazonSocial": "S.A. Importadora y Exportadora de la Patagonia", "comercioId": 2, "sucursalId": "055"}, "223": {"banderaId": 1, "lat": "-35.561416", "lng": "-58.017385", "sucursalNombre": "1018 - Chascomus", "id": "15-1-1018", "sucursalTipo": "Supermercado", "provincia": "AR-B", "direccion": "Cl J.M.De Rosas Y Tucuman 800", "banderaDescripcion": "Supermercados DIA", "localidad": "Chascomus", "comercioRazonSocial": "DIA Argentina S.A", "comercioId": 15, "sucursalId": "1018"}, "224": {"banderaId": 1, "lat": "-35.528798", "lng": "-58.012131", "sucursalNombre": "CHASCOMUS", "id": "3-1-1389", "sucursalTipo": "Autoservicio", "provincia": "AR-B", "direccion": "Ruta 2 Km 115.5 None", "banderaDescripcion": "DEHEZA S.A.I.C.F. e I.", "localidad": "CHASCOMUS", "comercioRazonSocial": "Deheza S.A.I.C.F. e I.", "comercioId": 3, "sucursalId": "1389"}, "225": {"banderaId": 1, "lat": "-34.544654", "lng": "-58.568523", "sucursalNombre": "160 - Chilavert", "id": "15-1-160", "sucursalTipo": "Autoservicio", "provincia": "AR-B", "direccion": "Cl Artigas Y Campichuelo 6015", "banderaDescripcion": "Supermercados DIA", "localidad": "Chilavert", "comercioRazonSocial": "DIA Argentina S.A", "comercioId": 15, "sucursalId": "160"}, "226": {"banderaId": 2, "lat": "-34.541198", "lng": "-58.563095", "sucursalNombre": "Chilavert", "id": "10-2-203", "sucursalTipo": "Supermercado", "provincia": "AR-B", "direccion": "Lacroze 5910", "banderaDescripcion": "Market", "localidad": "Chilavert", "comercioRazonSocial": "INC S.A.", "comercioId": 10, "sucursalId": "203"}, "227": {"banderaId": 1, "lat": "-34.8940464", "lng": "-60.0228134", "sucursalNombre": "248 - Chivilcoy", "id": "15-1-248", "sucursalTipo": "Autoservicio", "provincia": "AR-B", "direccion": "Av Ceballos 172", "banderaDescripcion": "Supermercados DIA", "localidad": "Chivilcoy", "comercioRazonSocial": "DIA Argentina S.A", "comercioId": 15, "sucursalId": "248"}, "228": {"banderaId": 1, "lat": "-34.895400", "lng": "-60.017500", "sucursalNombre": "CHIVILCOY", "id": "2-1-057", "sucursalTipo": "Supermercado", "provincia": "AR-B", "direccion": "Av. Federico Soarez 52", "banderaDescripcion": "La Anonima", "localidad": "Chivilcoy", "comercioRazonSocial": "S.A. Importadora y Exportadora de la Patagonia", "comercioId": 2, "sucursalId": "057"}, "229": {"banderaId": 1, "lat": "-34.8940", "lng": "-60.0175", "sucursalNombre": "Chivilcoy", "id": "9-1-8", "sucursalTipo": "Supermercado", "provincia": "AR-B", "direccion": "Gral. Rodriguez Y Pellegrini 0", "banderaDescripcion": "Vea", "localidad": "CHIVILCOY", "comercioRazonSocial": "Jumbo Retail Argentina S.A.", "comercioId": 9, "sucursalId": "8"}, "230": {"banderaId": 2, "lat": "-34.8819", "lng": "-58.0544", "sucursalNombre": "City Bell.", "id": "9-2-111", "sucursalTipo": "Supermercado", "provincia": "AR-B", "direccion": "Belgrano Entre Calle 15 Y Pellegrini 0", "banderaDescripcion": "Disco", "localidad": "CITY BELL", "comercioRazonSocial": "Jumbo Retail Argentina S.A.", "comercioId": 9, "sucursalId": "111"}, "231": {"banderaId": 1, "lat": "-34.6238633", "lng": "-58.5582513", "sucursalNombre": "1070 - Ciudadela", "id": "15-1-1070", "sucursalTipo": "Supermercado", "provincia": "AR-B", "direccion": "Av Hipolito Yrigoyen Y Marcelo T. De Alvear 2040", "banderaDescripcion": "Supermercados DIA", "localidad": "Ciudadela", "comercioRazonSocial": "DIA Argentina S.A", "comercioId": 15, "sucursalId": "1070"}, "232": {"banderaId": 1, "lat": "-34.6402735", "lng": "-58.5418243", "sucursalNombre": "9 - Ciudadela", "id": "15-1-9", "sucursalTipo": "Autoservicio", "provincia": "AR-B", "direccion": "Cl Av. Rivadavia 2646", "banderaDescripcion": "Supermercados DIA", "localidad": "Ciudadela", "comercioRazonSocial": "DIA Argentina S.A", "comercioId": 15, "sucursalId": "9"}, "233": {"banderaId": 1, "lat": "-34.6182294", "lng": "-58.5442501", "sucursalNombre": "130 - Ciudadela", "id": "15-1-130", "sucursalTipo": "Autoservicio", "provincia": "AR-B", "direccion": "Cl Mt Alvear 3200", "banderaDescripcion": "Supermercados DIA", "localidad": "Ciudadela", "comercioRazonSocial": "DIA Argentina S.A", "comercioId": 15, "sucursalId": "130"}, "234": {"banderaId": 1, "lat": "-34.6287238", "lng": "-58.5488933", "sucursalNombre": "CIUDADELA ", "id": "12-1-129", "sucursalTipo": "Hipermercado", "provincia": "AR-B", "direccion": "Comesa\u00f1a 4056", "banderaDescripcion": "COTO CICSA", "localidad": "Ciudadela", "comercioRazonSocial": "Coto Centro Integral de Comercializaci\u00f3n S.A.", "comercioId": 12, "sucursalId": "129"}, "235": {"banderaId": 1, "lat": "-34.629473", "lng": "-58.558307", "sucursalNombre": "CIUDADELA", "id": "3-1-1426", "sucursalTipo": "Autoservicio", "provincia": "AR-B", "direccion": "Acceso Oeste Y Calle Republica Km 3.7 None", "banderaDescripcion": "DEHEZA S.A.I.C.F. e I.", "localidad": "CIUDADELA", "comercioRazonSocial": "Deheza S.A.I.C.F. e I.", "comercioId": 3, "sucursalId": "1426"}, "236": {"banderaId": 2, "lat": "-34.603431", "lng": "-58.592464", "sucursalNombre": "Palomar", "id": "10-2-205", "sucursalTipo": "Supermercado", "provincia": "AR-B", "direccion": "De Los Ceibos 233", "banderaDescripcion": "Market", "localidad": "Ciudad Jard\u00edn del Palomar", "comercioRazonSocial": "INC S.A.", "comercioId": 10, "sucursalId": "205"}, "237": {"banderaId": 1, "lat": "-34.8276381", "lng": "-58.38449", "sucursalNombre": "141 - Claypole", "id": "15-1-141", "sucursalTipo": "Autoservicio", "provincia": "AR-B", "direccion": "Cl Alcorta 1235", "banderaDescripcion": "Supermercados DIA", "localidad": "Claypole", "comercioRazonSocial": "DIA Argentina S.A", "comercioId": 15, "sucursalId": "141"}, "238": {"banderaId": 2, "lat": "-34.809111", "lng": "-58.343911", "sucursalNombre": "Claypole", "id": "11-2-1110", "sucursalTipo": "Supermercado", "provincia": "AR-B", "direccion": "Avenida Lacaze 3963", "banderaDescripcion": "Changomas", "localidad": "CLAYPOLE", "comercioRazonSocial": "Wal Mart Argentina S.R.L.", "comercioId": 11, "sucursalId": "1110"}, "239": {"banderaId": 1, "lat": "-33.893380", "lng": "-61.098380", "sucursalNombre": "COLON", "id": "2-1-089", "sucursalTipo": "Supermercado", "provincia": "AR-B", "direccion": "Calle 20 718", "banderaDescripcion": "La Anonima", "localidad": "Colon", "comercioRazonSocial": "S.A. Importadora y Exportadora de la Patagonia", "comercioId": 2, "sucursalId": "089"}, "240": {"banderaId": 1, "lat": "-35.169002", "lng": "-58.231875", "sucursalNombre": "176 - Coronel Brandsen", "id": "15-1-176", "sucursalTipo": "Autoservicio", "provincia": "AR-B", "direccion": "Cl Ituzaingo 0", "banderaDescripcion": "Supermercados DIA", "localidad": "Coronel Brandsen", "comercioRazonSocial": "DIA Argentina S.A", "comercioId": 15, "sucursalId": "176"}, "241": {"banderaId": 1, "lat": "-38.71356528769891", "lng": "-61.29378994979851", "sucursalNombre": "Dorrego", "id": "13-1-22", "sucursalTipo": "Supermercado", "provincia": "AR-B", "direccion": "Av. San Mart\u00edn 274", "banderaDescripcion": "Cooperativa Obrera Limitada de Consumo y Vivienda", "localidad": "Coronel Dorrego", "comercioRazonSocial": "Cooperativa Obrera Limitada de Consumo y Vivienda", "comercioId": 13, "sucursalId": "22"}, "242": {"banderaId": 1, "lat": "-37.976660596903315", "lng": "-61.359823822713224", "sucursalNombre": "Hipervisi\u00f3n", "id": "13-1-47", "sucursalTipo": "Supermercado", "provincia": "AR-B", "direccion": "Av. 25 De Mayo 1565", "banderaDescripcion": "Cooperativa Obrera Limitada de Consumo y Vivienda", "localidad": "Coronel Pringles", "comercioRazonSocial": "Cooperativa Obrera Limitada de Consumo y Vivienda", "comercioId": 13, "sucursalId": "47"}, "243": {"banderaId": 1, "lat": "-37.9854", "lng": "-61.3540", "sucursalNombre": "Visi\u00f3n I", "id": "13-1-48", "sucursalTipo": "Supermercado", "provincia": "AR-B", "direccion": "Mitre 999", "banderaDescripcion": "Cooperativa Obrera Limitada de Consumo y Vivienda", "localidad": "Coronel Pringles", "comercioRazonSocial": "Cooperativa Obrera Limitada de Consumo y Vivienda", "comercioId": 13, "sucursalId": "48"}, "244": {"banderaId": 1, "lat": "-37.98374648245796", "lng": "-61.3536998033851", "sucursalNombre": "Cnel. Pringles", "id": "13-1-29", "sucursalTipo": "Supermercado", "provincia": "AR-B", "direccion": "Pellegrini 771", "banderaDescripcion": "Cooperativa Obrera Limitada de Consumo y Vivienda", "localidad": "Coronel Pringles", "comercioRazonSocial": "Cooperativa Obrera Limitada de Consumo y Vivienda", "comercioId": 13, "sucursalId": "29"}, "245": {"banderaId": 1, "lat": "-37.4607288597626", "lng": "-61.93615024871826", "sucursalNombre": "Cnel. Suarez", "id": "13-1-26", "sucursalTipo": "Supermercado", "provincia": "AR-B", "direccion": "Av. Casey 1414", "banderaDescripcion": "Cooperativa Obrera Limitada de Consumo y Vivienda", "localidad": "Coronel Suarez", "comercioRazonSocial": "Cooperativa Obrera Limitada de Consumo y Vivienda", "comercioId": 13, "sucursalId": "26"}, "246": {"banderaId": 1, "lat": "-37.46528120231377", "lng": "-61.93027533960344", "sucursalNombre": "Cnel.Suarez II", "id": "13-1-86", "sucursalTipo": "Supermercado", "provincia": "AR-B", "direccion": "Av. San Mart\u00edn 477", "banderaDescripcion": "Cooperativa Obrera Limitada de Consumo y Vivienda", "localidad": "Coronel Suarez", "comercioRazonSocial": "Cooperativa Obrera Limitada de Consumo y Vivienda", "comercioId": 13, "sucursalId": "86"}, "247": {"banderaId": 1, "lat": "-37.449135", "lng": "-57.72747", "sucursalNombre": "452 - Coronel Vidal", "id": "15-1-452", "sucursalTipo": "Autoservicio", "provincia": "AR-B", "direccion": "Av Avellaneda 110", "banderaDescripcion": "Supermercados DIA", "localidad": "Coronel Vidal", "comercioRazonSocial": "DIA Argentina S.A", "comercioId": 15, "sucursalId": "452"}, "248": {"banderaId": 1, "lat": "-36.599707", "lng": "-61.749462", "sucursalNombre": "297 - Daireaux", "id": "15-1-297", "sucursalTipo": "Autoservicio", "provincia": "AR-B", "direccion": "Cl Lavalle 99", "banderaDescripcion": "Supermercados DIA", "localidad": "Daireaux", "comercioRazonSocial": "DIA Argentina S.A", "comercioId": 15, "sucursalId": "297"}, "249": {"banderaId": 3, "lat": "-34.449447", "lng": "-58.797046", "sucursalNombre": "Madero 1050 Ruta 26", "id": "10-3-433", "sucursalTipo": "Autoservicio", "provincia": "AR-B", "direccion": "Av. Ing. Eduardo Madero 1050", "banderaDescripcion": "Express", "localidad": "Del Viso", "comercioRazonSocial": "INC S.A.", "comercioId": 10, "sucursalId": "433"}, "250": {"banderaId": 1, "lat": "-34.4517657", "lng": "-58.7974943", "sucursalNombre": "92 - Del Viso", "id": "15-1-92", "sucursalTipo": "Autoservicio", "provincia": "AR-B", "direccion": "Cl Valentin Gomez 0", "banderaDescripcion": "Supermercados DIA", "localidad": "Del Viso", "comercioRazonSocial": "DIA Argentina S.A", "comercioId": 15, "sucursalId": "92"}, "251": {"banderaId": 3, "lat": "-34.4360", "lng": "-58.8080", "sucursalNombre": "Jumbo Paseo del Pilar", "id": "9-3-662", "sucursalTipo": "Supermercado", "provincia": "AR-B", "direccion": "Acceso Pilar Norte 0", "banderaDescripcion": "Jumbo", "localidad": "DEL VISO", "comercioRazonSocial": "Jumbo Retail Argentina S.A.", "comercioId": 9, "sucursalId": "662"}, "252": {"banderaId": 1, "lat": "-34.440125", "lng": "-58.782750", "sucursalNombre": "DEL VISO", "id": "3-1-1606", "sucursalTipo": "Autoservicio", "provincia": "AR-B", "direccion": "Ruta 26 Y Acceso A Del Viso None", "banderaDescripcion": "DEHEZA S.A.I.C.F. e I.", "localidad": "DEL VISO", "comercioRazonSocial": "Deheza S.A.I.C.F. e I.", "comercioId": 3, "sucursalId": "1606"}, "253": {"banderaId": 3, "lat": "-34.490709", "lng": "-58.843137", "sucursalNombre": "Av. de Mayo 432", "id": "10-3-638", "sucursalTipo": "Autoservicio", "provincia": "AR-B", "direccion": "Av. De Mayo 432", "banderaDescripcion": "Express", "localidad": "Derqui", "comercioRazonSocial": "INC S.A.", "comercioId": 10, "sucursalId": "638"}, "254": {"banderaId": 1, "lat": "-36.313707", "lng": "-57.680161", "sucursalNombre": "1025 - Dolores", "id": "15-1-1025", "sucursalTipo": "Supermercado", "provincia": "AR-B", "direccion": "Cl Bs.As.Esq.Pueyrredon 400", "banderaDescripcion": "Supermercados DIA", "localidad": "Dolores", "comercioRazonSocial": "DIA Argentina S.A", "comercioId": 15, "sucursalId": "1025"}, "255": {"banderaId": 1, "lat": "-36.25743", "lng": "-57.70928", "sucursalNombre": "DOLORES TIENDA", "id": "19-1-03300", "sucursalTipo": "Autoservicio", "provincia": "AR-B", "direccion": "Ruta Nacional 2 Km 202.300 Asc 0", "banderaDescripcion": "FULL", "localidad": "DOLORES", "comercioRazonSocial": "Operadora de Estaciones de Servicios S.A.", "comercioId": 19, "sucursalId": "03300"}, "256": {"banderaId": 3, "lat": "-34.697530", "lng": "-58.302113", "sucursalNombre": "Los Tilos 711", "id": "10-3-443", "sucursalTipo": "Autoservicio", "provincia": "AR-B", "direccion": "Los Tilos 711", "banderaDescripcion": "Express", "localidad": "Don Bosco", "comercioRazonSocial": "INC S.A.", "comercioId": 10, "sucursalId": "443"}, "257": {"banderaId": 1, "lat": "-34.491603", "lng": "-58.627670", "sucursalNombre": "Don Torcuato", "id": "10-1-234", "sucursalTipo": "Hipermercado", "provincia": "AR-B", "direccion": "Av. \u00c1ngel T. De Alvear 1960", "banderaDescripcion": "Hipermercado Carrefour", "localidad": "Don Torcuato", "comercioRazonSocial": "INC S.A.", "comercioId": 10, "sucursalId": "234"}, "258": {"banderaId": 1, "lat": "-34.48482", "lng": "-58.61425", "sucursalNombre": "LA CALETA", "id": "19-1-00283", "sucursalTipo": "Autoservicio", "provincia": "AR-B", "direccion": "Av.Col.Este(Panam)/Ruta 202 25903", "banderaDescripcion": "FULL", "localidad": "DON TORCUATO", "comercioRazonSocial": "Operadora de Estaciones de Servicios S.A.", "comercioId": 19, "sucursalId": "00283"}, "259": {"banderaId": 1, "lat": "-34.50183", "lng": "-58.6451", "sucursalNombre": "ACA DON TORCUATO", "id": "19-1-00280", "sucursalTipo": "Autoservicio", "provincia": "AR-B", "direccion": "Ruta 202 Km Y Av. Del Trabajo 0", "banderaDescripcion": "FULL", "localidad": "DON TORCUATO", "comercioRazonSocial": "Operadora de Estaciones de Servicios S.A.", "comercioId": 19, "sucursalId": "00280"}, "260": {"banderaId": 1, "lat": "-34.8338743", "lng": "-58.4949847", "sucursalNombre": "78 - El Jaguel Pdo Esteb Eche", "id": "15-1-78", "sucursalTipo": "Autoservicio", "provincia": "AR-B", "direccion": "Cl Evita 354", "banderaDescripcion": "Supermercados DIA", "localidad": "El Jaguel Pdo Esteb Eche", "comercioRazonSocial": "DIA Argentina S.A", "comercioId": 15, "sucursalId": "78"}, "261": {"banderaId": 1, "lat": "-34.605001", "lng": "-58.594873", "sucursalNombre": "499 - El Palomar", "id": "15-1-499", "sucursalTipo": "Autoservicio", "provincia": "AR-B", "direccion": "Misiones 6458", "banderaDescripcion": "Supermercados DIA", "localidad": "El Palomar", "comercioRazonSocial": "DIA Argentina S.A", "comercioId": 15, "sucursalId": "499"}, "262": {"banderaId": 1, "lat": "-34.892971", "lng": "-57.945932", "sucursalNombre": "1034 - Ensenada", "id": "15-1-1034", "sucursalTipo": "Supermercado", "provincia": "AR-B", "direccion": "Av 122 0", "banderaDescripcion": "Supermercados DIA", "localidad": "Ensenada", "comercioRazonSocial": "DIA Argentina S.A", "comercioId": 15, "sucursalId": "1034"}, "263": {"banderaId": 1, "lat": "-34.8571545", "lng": "-57.9168134", "sucursalNombre": "163 - Ensenada", "id": "15-1-163", "sucursalTipo": "Autoservicio", "provincia": "AR-B", "direccion": "Cl Bossigna 783", "banderaDescripcion": "Supermercados DIA", "localidad": "Ensenada", "comercioRazonSocial": "DIA Argentina S.A", "comercioId": 15, "sucursalId": "163"}, "264": {"banderaId": 1, "lat": "-34.860558", "lng": "-57.9032607", "sucursalNombre": "55 - Ensenada", "id": "15-1-55", "sucursalTipo": "Autoservicio", "provincia": "AR-B", "direccion": "Cl La Merced 220", "banderaDescripcion": "Supermercados DIA", "localidad": "Ensenada", "comercioRazonSocial": "DIA Argentina S.A", "comercioId": 15, "sucursalId": "55"}, "265": {"banderaId": 1, "lat": "-34.86586", "lng": "-58.003415", "sucursalNombre": "AUT BSAS-LA PLATA - A BS AS", "id": "3-1-1736", "sucursalTipo": "Autoservicio", "provincia": "AR-B", "direccion": "Progresiva - Autop. La Plata / Bs -  (A  Capital) 5700", "banderaDescripcion": "DEHEZA S.A.I.C.F. e I.", "localidad": "ENSENADA", "comercioRazonSocial": "Deheza S.A.I.C.F. e I.", "comercioId": 3, "sucursalId": "1736"},